[
    {
        "name": "157963",
        "latitude": 51.7618788422,
        "longitude": 19.4722845227,
        "country": "PL",
        "iconUrl": "DHL.svg",
        "owner": "DHL",
        "address": "Poland",
        "city": []
    },
    {
        "name": "161725",
        "latitude": 51.31264701,
        "longitude": 17.06188904,
        "country": "PL",
        "iconUrl": "DHL.svg",
        "owner": "DHL",
        "address": "Poland",
        "city": []
    },
    {
        "name": "163237",
        "latitude": 50.31514,
        "longitude": 19.00321,
        "country": "PL",
        "iconUrl": "DHL.svg",
        "owner": "DHL",
        "address": "Poland",
        "city": []
    },
    {
        "name": "158233",
        "latitude": 50.44336,
        "longitude": 18.8291,
        "country": "PL",
        "iconUrl": "DHL.svg",
        "owner": "DHL",
        "address": "Poland",
        "city": []
    },
    {
        "name": "158229",
        "latitude": 54.6046463,
        "longitude": 18.25334319,
        "country": "PL",
        "iconUrl": "DHL.svg",
        "owner": "DHL",
        "address": "Poland",
        "city": []
    },
    {
        "name": "158230",
        "latitude": 51.7511923241,
        "longitude": 19.5023133094,
        "country": "PL",
        "iconUrl": "DHL.svg",
        "owner": "DHL",
        "address": "Poland",
        "city": []
    },
    {
        "name": "158231",
        "latitude": 51.75276,
        "longitude": 19.41984,
        "country": "PL",
        "iconUrl": "DHL.svg",
        "owner": "DHL",
        "address": "Poland",
        "city": []
    },
    {
        "name": "158232",
        "latitude": 53.15340694,
        "longitude": 18.15606026,
        "country": "PL",
        "iconUrl": "DHL.svg",
        "owner": "DHL",
        "address": "Poland",
        "city": []
    },
    {
        "name": "158153",
        "latitude": 52.36918,
        "longitude": 16.81296,
        "country": "PL",
        "iconUrl": "DHL.svg",
        "owner": "DHL",
        "address": "Poland",
        "city": []
    },
    {
        "name": "158154",
        "latitude": 53.12476767,
        "longitude": 18.01787127,
        "country": "PL",
        "iconUrl": "DHL.svg",
        "owner": "DHL",
        "address": "Poland",
        "city": []
    },
    {
        "name": "158155",
        "latitude": 50.0329013784,
        "longitude": 22.0344533593,
        "country": "PL",
        "iconUrl": "DHL.svg",
        "owner": "DHL",
        "address": "Poland",
        "city": []
    },
    {
        "name": "158156",
        "latitude": 54.3516974223,
        "longitude": 18.5946033561,
        "country": "PL",
        "iconUrl": "DHL.svg",
        "owner": "DHL",
        "address": "Poland",
        "city": []
    },
    {
        "name": "158157",
        "latitude": 50.01156936,
        "longitude": 19.96330737,
        "country": "PL",
        "iconUrl": "DHL.svg",
        "owner": "DHL",
        "address": "Poland",
        "city": []
    },
    {
        "name": "158158",
        "latitude": 49.94255,
        "longitude": 18.58096,
        "country": "PL",
        "iconUrl": "DHL.svg",
        "owner": "DHL",
        "address": "Poland",
        "city": []
    },
    {
        "name": "158159",
        "latitude": 51.14559004,
        "longitude": 17.04219783,
        "country": "PL",
        "iconUrl": "DHL.svg",
        "owner": "DHL",
        "address": "Poland",
        "city": []
    },
    {
        "name": "158160",
        "latitude": 51.10951365,
        "longitude": 16.96734927,
        "country": "PL",
        "iconUrl": "DHL.svg",
        "owner": "DHL",
        "address": "Poland",
        "city": []
    },
    {
        "name": "158161",
        "latitude": 49.94060097,
        "longitude": 18.59325864,
        "country": "PL",
        "iconUrl": "DHL.svg",
        "owner": "DHL",
        "address": "Poland",
        "city": []
    },
    {
        "name": "158162",
        "latitude": 52.171594,
        "longitude": 21.200692,
        "country": "PL",
        "iconUrl": "DHL.svg",
        "owner": "DHL",
        "address": "Poland",
        "city": []
    },
    {
        "name": "158163",
        "latitude": 49.94626,
        "longitude": 18.60311,
        "country": "PL",
        "iconUrl": "DHL.svg",
        "owner": "DHL",
        "address": "Poland",
        "city": []
    },
    {
        "name": "158164",
        "latitude": 50.241,
        "longitude": 18.85087,
        "country": "PL",
        "iconUrl": "DHL.svg",
        "owner": "DHL",
        "address": "Poland",
        "city": []
    },
    {
        "name": "158165",
        "latitude": 50.29679,
        "longitude": 18.79217,
        "country": "PL",
        "iconUrl": "DHL.svg",
        "owner": "DHL",
        "address": "Poland",
        "city": []
    },
    {
        "name": "158166",
        "latitude": 52.4547958291,
        "longitude": 16.9041403285,
        "country": "PL",
        "iconUrl": "DHL.svg",
        "owner": "DHL",
        "address": "Poland",
        "city": []
    },
    {
        "name": "158167",
        "latitude": 50.27943,
        "longitude": 19.01486,
        "country": "PL",
        "iconUrl": "DHL.svg",
        "owner": "DHL",
        "address": "Poland",
        "city": []
    },
    {
        "name": "158168",
        "latitude": 52.34490056,
        "longitude": 21.24986384,
        "country": "PL",
        "iconUrl": "DHL.svg",
        "owner": "DHL",
        "address": "Poland",
        "city": []
    },
    {
        "name": "158169",
        "latitude": 51.72816552,
        "longitude": 19.45521293,
        "country": "PL",
        "iconUrl": "DHL.svg",
        "owner": "DHL",
        "address": "Poland",
        "city": []
    },
    {
        "name": "158170",
        "latitude": 52.34425184,
        "longitude": 16.91875276,
        "country": "PL",
        "iconUrl": "DHL.svg",
        "owner": "DHL",
        "address": "Poland",
        "city": []
    },
    {
        "name": "158171",
        "latitude": 53.1438833535,
        "longitude": 18.15382162,
        "country": "PL",
        "iconUrl": "DHL.svg",
        "owner": "DHL",
        "address": "Poland",
        "city": []
    },
    {
        "name": "158172",
        "latitude": 52.38639708,
        "longitude": 16.8858862,
        "country": "PL",
        "iconUrl": "DHL.svg",
        "owner": "DHL",
        "address": "Poland",
        "city": []
    },
    {
        "name": "158174",
        "latitude": 52.4550685922,
        "longitude": 16.8999398717,
        "country": "PL",
        "iconUrl": "DHL.svg",
        "owner": "DHL",
        "address": "Poland",
        "city": []
    },
    {
        "name": "158175",
        "latitude": 50.07521,
        "longitude": 20.01738,
        "country": "PL",
        "iconUrl": "DHL.svg",
        "owner": "DHL",
        "address": "Poland",
        "city": []
    },
    {
        "name": "158176",
        "latitude": 52.4654735715,
        "longitude": 16.8711682787,
        "country": "PL",
        "iconUrl": "DHL.svg",
        "owner": "DHL",
        "address": "Poland",
        "city": []
    },
    {
        "name": "158177",
        "latitude": 52.3831758,
        "longitude": 16.88922198,
        "country": "PL",
        "iconUrl": "DHL.svg",
        "owner": "DHL",
        "address": "Poland",
        "city": []
    },
    {
        "name": "158178",
        "latitude": 52.38529147,
        "longitude": 16.88566459,
        "country": "PL",
        "iconUrl": "DHL.svg",
        "owner": "DHL",
        "address": "Poland",
        "city": []
    },
    {
        "name": "158179",
        "latitude": 52.4196001461,
        "longitude": 16.965811141,
        "country": "PL",
        "iconUrl": "DHL.svg",
        "owner": "DHL",
        "address": "Poland",
        "city": []
    },
    {
        "name": "158180",
        "latitude": 53.09770514,
        "longitude": 18.03801859,
        "country": "PL",
        "iconUrl": "DHL.svg",
        "owner": "DHL",
        "address": "Poland",
        "city": []
    },
    {
        "name": "158182",
        "latitude": 52.10724,
        "longitude": 21.25472,
        "country": "PL",
        "iconUrl": "DHL.svg",
        "owner": "DHL",
        "address": "Poland",
        "city": []
    },
    {
        "name": "158183",
        "latitude": 50.1909382934,
        "longitude": 18.6254841012,
        "country": "PL",
        "iconUrl": "DHL.svg",
        "owner": "DHL",
        "address": "Poland",
        "city": []
    },
    {
        "name": "158205",
        "latitude": 50.27959,
        "longitude": 19.56618,
        "country": "PL",
        "iconUrl": "DHL.svg",
        "owner": "DHL",
        "address": "Poland",
        "city": []
    },
    {
        "name": "158184",
        "latitude": 50.31076,
        "longitude": 18.78622,
        "country": "PL",
        "iconUrl": "DHL.svg",
        "owner": "DHL",
        "address": "Poland",
        "city": []
    },
    {
        "name": "158185",
        "latitude": 50.26945,
        "longitude": 18.93673,
        "country": "PL",
        "iconUrl": "DHL.svg",
        "owner": "DHL",
        "address": "Poland",
        "city": []
    },
    {
        "name": "158186",
        "latitude": 50.18961,
        "longitude": 19.10259,
        "country": "PL",
        "iconUrl": "DHL.svg",
        "owner": "DHL",
        "address": "Poland",
        "city": []
    },
    {
        "name": "158187",
        "latitude": 50.27757,
        "longitude": 19.00817,
        "country": "PL",
        "iconUrl": "DHL.svg",
        "owner": "DHL",
        "address": "Poland",
        "city": []
    },
    {
        "name": "158188",
        "latitude": 50.29046,
        "longitude": 19.13191,
        "country": "PL",
        "iconUrl": "DHL.svg",
        "owner": "DHL",
        "address": "Poland",
        "city": []
    },
    {
        "name": "158189",
        "latitude": 50.23301,
        "longitude": 18.66156,
        "country": "PL",
        "iconUrl": "DHL.svg",
        "owner": "DHL",
        "address": "Poland",
        "city": []
    },
    {
        "name": "158190",
        "latitude": 51.0945901142,
        "longitude": 17.0277511575,
        "country": "PL",
        "iconUrl": "DHL.svg",
        "owner": "DHL",
        "address": "Poland",
        "city": []
    },
    {
        "name": "158191",
        "latitude": 50.31927,
        "longitude": 19.00553,
        "country": "PL",
        "iconUrl": "DHL.svg",
        "owner": "DHL",
        "address": "Poland",
        "city": []
    },
    {
        "name": "158192",
        "latitude": 50.30173,
        "longitude": 18.84972,
        "country": "PL",
        "iconUrl": "DHL.svg",
        "owner": "DHL",
        "address": "Poland",
        "city": []
    },
    {
        "name": "158193",
        "latitude": 51.23749,
        "longitude": 22.54843,
        "country": "PL",
        "iconUrl": "DHL.svg",
        "owner": "DHL",
        "address": "Poland",
        "city": []
    },
    {
        "name": "158194",
        "latitude": 50.2888,
        "longitude": 18.96686,
        "country": "PL",
        "iconUrl": "DHL.svg",
        "owner": "DHL",
        "address": "Poland",
        "city": []
    },
    {
        "name": "158195",
        "latitude": 50.49111,
        "longitude": 19.43176,
        "country": "PL",
        "iconUrl": "DHL.svg",
        "owner": "DHL",
        "address": "Poland",
        "city": []
    },
    {
        "name": "158196",
        "latitude": 50.29371,
        "longitude": 19.24593,
        "country": "PL",
        "iconUrl": "DHL.svg",
        "owner": "DHL",
        "address": "Poland",
        "city": []
    },
    {
        "name": "158197",
        "latitude": 50.32256368,
        "longitude": 19.00331467,
        "country": "PL",
        "iconUrl": "DHL.svg",
        "owner": "DHL",
        "address": "Poland",
        "city": []
    },
    {
        "name": "158198",
        "latitude": 50.26989892,
        "longitude": 19.0341787,
        "country": "PL",
        "iconUrl": "DHL.svg",
        "owner": "DHL",
        "address": "Poland",
        "city": []
    },
    {
        "name": "158199",
        "latitude": 49.9494,
        "longitude": 18.59474,
        "country": "PL",
        "iconUrl": "DHL.svg",
        "owner": "DHL",
        "address": "Poland",
        "city": []
    },
    {
        "name": "158200",
        "latitude": 50.24336,
        "longitude": 19.12443,
        "country": "PL",
        "iconUrl": "DHL.svg",
        "owner": "DHL",
        "address": "Poland",
        "city": []
    },
    {
        "name": "158201",
        "latitude": 50.22491,
        "longitude": 19.22908,
        "country": "PL",
        "iconUrl": "DHL.svg",
        "owner": "DHL",
        "address": "Poland",
        "city": []
    },
    {
        "name": "158202",
        "latitude": 50.01458,
        "longitude": 18.45757,
        "country": "PL",
        "iconUrl": "DHL.svg",
        "owner": "DHL",
        "address": "Poland",
        "city": []
    },
    {
        "name": "158203",
        "latitude": 50.28104,
        "longitude": 19.1185,
        "country": "PL",
        "iconUrl": "DHL.svg",
        "owner": "DHL",
        "address": "Poland",
        "city": []
    },
    {
        "name": "158204",
        "latitude": 50.01516,
        "longitude": 20.02059,
        "country": "PL",
        "iconUrl": "DHL.svg",
        "owner": "DHL",
        "address": "Poland",
        "city": []
    },
    {
        "name": "158206",
        "latitude": 50.48073,
        "longitude": 19.43352,
        "country": "PL",
        "iconUrl": "DHL.svg",
        "owner": "DHL",
        "address": "Poland",
        "city": []
    },
    {
        "name": "158207",
        "latitude": 50.28495,
        "longitude": 19.01408,
        "country": "PL",
        "iconUrl": "DHL.svg",
        "owner": "DHL",
        "address": "Poland",
        "city": []
    },
    {
        "name": "158208",
        "latitude": 53.385134,
        "longitude": 14.660775,
        "country": "PL",
        "iconUrl": "DHL.svg",
        "owner": "DHL",
        "address": "Poland",
        "city": []
    },
    {
        "name": "158209",
        "latitude": 50.2446,
        "longitude": 18.82581,
        "country": "PL",
        "iconUrl": "DHL.svg",
        "owner": "DHL",
        "address": "Poland",
        "city": []
    },
    {
        "name": "158210",
        "latitude": 49.869321,
        "longitude": 19.031581,
        "country": "PL",
        "iconUrl": "DHL.svg",
        "owner": "DHL",
        "address": "Poland",
        "city": []
    },
    {
        "name": "158211",
        "latitude": 50.891407,
        "longitude": 20.588831,
        "country": "PL",
        "iconUrl": "DHL.svg",
        "owner": "DHL",
        "address": "Poland",
        "city": []
    },
    {
        "name": "158212",
        "latitude": 50.30270953,
        "longitude": 18.74035342,
        "country": "PL",
        "iconUrl": "DHL.svg",
        "owner": "DHL",
        "address": "Poland",
        "city": []
    },
    {
        "name": "158213",
        "latitude": 52.150566,
        "longitude": 20.994579,
        "country": "PL",
        "iconUrl": "DHL.svg",
        "owner": "DHL",
        "address": "Poland",
        "city": []
    },
    {
        "name": "158214",
        "latitude": 51.235756,
        "longitude": 22.61602,
        "country": "PL",
        "iconUrl": "DHL.svg",
        "owner": "DHL",
        "address": "Poland",
        "city": []
    },
    {
        "name": "158215",
        "latitude": 53.769061,
        "longitude": 20.528757,
        "country": "PL",
        "iconUrl": "DHL.svg",
        "owner": "DHL",
        "address": "Poland",
        "city": []
    },
    {
        "name": "158216",
        "latitude": 54.3178023471,
        "longitude": 18.5543807233,
        "country": "PL",
        "iconUrl": "DHL.svg",
        "owner": "DHL",
        "address": "Poland",
        "city": []
    },
    {
        "name": "158217",
        "latitude": 54.192739,
        "longitude": 16.16239,
        "country": "PL",
        "iconUrl": "DHL.svg",
        "owner": "DHL",
        "address": "Poland",
        "city": []
    },
    {
        "name": "158218",
        "latitude": 53.372399,
        "longitude": 14.47868,
        "country": "PL",
        "iconUrl": "DHL.svg",
        "owner": "DHL",
        "address": "Poland",
        "city": []
    },
    {
        "name": "158219",
        "latitude": 51.155046,
        "longitude": 17.140541,
        "country": "PL",
        "iconUrl": "DHL.svg",
        "owner": "DHL",
        "address": "Poland",
        "city": []
    },
    {
        "name": "158220",
        "latitude": 50.8203349,
        "longitude": 16.3074992,
        "country": "PL",
        "iconUrl": "DHL.svg",
        "owner": "DHL",
        "address": "Poland",
        "city": []
    },
    {
        "name": "158221",
        "latitude": 51.95485455,
        "longitude": 15.47212126,
        "country": "PL",
        "iconUrl": "DHL.svg",
        "owner": "DHL",
        "address": "Poland",
        "city": []
    },
    {
        "name": "158222",
        "latitude": 50.6616587568,
        "longitude": 17.8810803324,
        "country": "PL",
        "iconUrl": "DHL.svg",
        "owner": "DHL",
        "address": "Poland",
        "city": []
    },
    {
        "name": "158223",
        "latitude": 52.21848,
        "longitude": 18.24919,
        "country": "PL",
        "iconUrl": "DHL.svg",
        "owner": "DHL",
        "address": "Poland",
        "city": []
    },
    {
        "name": "158224",
        "latitude": 51.80818,
        "longitude": 19.401045,
        "country": "PL",
        "iconUrl": "DHL.svg",
        "owner": "DHL",
        "address": "Poland",
        "city": []
    },
    {
        "name": "158225",
        "latitude": 51.381812,
        "longitude": 21.08115,
        "country": "PL",
        "iconUrl": "DHL.svg",
        "owner": "DHL",
        "address": "Poland",
        "city": []
    },
    {
        "name": "158226",
        "latitude": 52.34462,
        "longitude": 16.77794,
        "country": "PL",
        "iconUrl": "DHL.svg",
        "owner": "DHL",
        "address": "Poland",
        "city": []
    },
    {
        "name": "158227",
        "latitude": 50.1182716171,
        "longitude": 21.9807496279,
        "country": "PL",
        "iconUrl": "DHL.svg",
        "owner": "DHL",
        "address": "Poland",
        "city": []
    },
    {
        "name": "161067",
        "latitude": 50.05343,
        "longitude": 19.95482,
        "country": "PL",
        "iconUrl": "DHL.svg",
        "owner": "DHL",
        "address": "Poland",
        "city": []
    },
    {
        "name": "162440",
        "latitude": 52.2437233402,
        "longitude": 21.0853905527,
        "country": "PL",
        "iconUrl": "DHL.svg",
        "owner": "DHL",
        "address": "Poland",
        "city": []
    },
    {
        "name": "162593",
        "latitude": 50.32054,
        "longitude": 19.0701,
        "country": "PL",
        "iconUrl": "DHL.svg",
        "owner": "DHL",
        "address": "Poland",
        "city": []
    },
    {
        "name": "162594",
        "latitude": 52.404853566,
        "longitude": 20.9492764801,
        "country": "PL",
        "iconUrl": "DHL.svg",
        "owner": "DHL",
        "address": "Poland",
        "city": []
    },
    {
        "name": "162595",
        "latitude": 51.2413,
        "longitude": 22.59475,
        "country": "PL",
        "iconUrl": "DHL.svg",
        "owner": "DHL",
        "address": "Poland",
        "city": []
    },
    {
        "name": "162596",
        "latitude": 51.74852545,
        "longitude": 19.46176487,
        "country": "PL",
        "iconUrl": "DHL.svg",
        "owner": "DHL",
        "address": "Poland",
        "city": []
    },
    {
        "name": "162597",
        "latitude": 50.24261,
        "longitude": 19.13776,
        "country": "PL",
        "iconUrl": "DHL.svg",
        "owner": "DHL",
        "address": "Poland",
        "city": []
    },
    {
        "name": "162598",
        "latitude": 50.21984,
        "longitude": 19.1584,
        "country": "PL",
        "iconUrl": "DHL.svg",
        "owner": "DHL",
        "address": "Poland",
        "city": []
    },
    {
        "name": "162599",
        "latitude": 52.10402,
        "longitude": 21.26238,
        "country": "PL",
        "iconUrl": "DHL.svg",
        "owner": "DHL",
        "address": "Poland",
        "city": []
    },
    {
        "name": "162600",
        "latitude": 52.45054478,
        "longitude": 16.94813266,
        "country": "PL",
        "iconUrl": "DHL.svg",
        "owner": "DHL",
        "address": "Poland",
        "city": []
    },
    {
        "name": "162601",
        "latitude": 50.2868663,
        "longitude": 19.122081,
        "country": "PL",
        "iconUrl": "DHL.svg",
        "owner": "DHL",
        "address": "Poland",
        "city": []
    },
    {
        "name": "162602",
        "latitude": 51.06691142,
        "longitude": 17.008119695,
        "country": "PL",
        "iconUrl": "DHL.svg",
        "owner": "DHL",
        "address": "Poland",
        "city": []
    },
    {
        "name": "164531",
        "latitude": 51.738945,
        "longitude": 19.5631492,
        "country": "PL",
        "iconUrl": "DHL.svg",
        "owner": "DHL",
        "address": "Poland",
        "city": []
    },
    {
        "name": "164532",
        "latitude": 53.1317496,
        "longitude": 18.0283023,
        "country": "PL",
        "iconUrl": "DHL.svg",
        "owner": "DHL",
        "address": "Poland",
        "city": []
    },
    {
        "name": "163238",
        "latitude": 51.14698,
        "longitude": 17.10662,
        "country": "PL",
        "iconUrl": "DHL.svg",
        "owner": "DHL",
        "address": "Poland",
        "city": []
    },
    {
        "name": "163239",
        "latitude": 50.32473,
        "longitude": 19.20521,
        "country": "PL",
        "iconUrl": "DHL.svg",
        "owner": "DHL",
        "address": "Poland",
        "city": []
    },
    {
        "name": "163240",
        "latitude": 50.3223211,
        "longitude": 19.1835499,
        "country": "PL",
        "iconUrl": "DHL.svg",
        "owner": "DHL",
        "address": "Poland",
        "city": []
    },
    {
        "name": "163775",
        "latitude": 50.2153877,
        "longitude": 19.25594724,
        "country": "PL",
        "iconUrl": "DHL.svg",
        "owner": "DHL",
        "address": "Poland",
        "city": []
    },
    {
        "name": "163776",
        "latitude": 50.2834,
        "longitude": 18.87729,
        "country": "PL",
        "iconUrl": "DHL.svg",
        "owner": "DHL",
        "address": "Poland",
        "city": []
    },
    {
        "name": "163777",
        "latitude": 50.2884639,
        "longitude": 19.11295038,
        "country": "PL",
        "iconUrl": "DHL.svg",
        "owner": "DHL",
        "address": "Poland",
        "city": []
    },
    {
        "name": "163778",
        "latitude": 52.41189194,
        "longitude": 16.8937099,
        "country": "PL",
        "iconUrl": "DHL.svg",
        "owner": "DHL",
        "address": "Poland",
        "city": []
    },
    {
        "name": "163779",
        "latitude": 51.15477,
        "longitude": 17.128576,
        "country": "PL",
        "iconUrl": "DHL.svg",
        "owner": "DHL",
        "address": "Poland",
        "city": []
    },
    {
        "name": "164533",
        "latitude": 50.3200508,
        "longitude": 19.1989117,
        "country": "PL",
        "iconUrl": "DHL.svg",
        "owner": "DHL",
        "address": "Poland",
        "city": []
    },
    {
        "name": "164534",
        "latitude": 50.3251415,
        "longitude": 19.201866,
        "country": "PL",
        "iconUrl": "DHL.svg",
        "owner": "DHL",
        "address": "Poland",
        "city": []
    },
    {
        "name": "164535",
        "latitude": 50.3292279,
        "longitude": 19.2341328,
        "country": "PL",
        "iconUrl": "DHL.svg",
        "owner": "DHL",
        "address": "Poland",
        "city": []
    },
    {
        "name": "164536",
        "latitude": 53.41022733,
        "longitude": 14.51871964,
        "country": "PL",
        "iconUrl": "DHL.svg",
        "owner": "DHL",
        "address": "Poland",
        "city": []
    },
    {
        "name": "164537",
        "latitude": 50.3047910372,
        "longitude": 19.0953823701,
        "country": "PL",
        "iconUrl": "DHL.svg",
        "owner": "DHL",
        "address": "Poland",
        "city": []
    },
    {
        "name": "164777",
        "latitude": 50.27447,
        "longitude": 19.12913,
        "country": "PL",
        "iconUrl": "DHL.svg",
        "owner": "DHL",
        "address": "Poland",
        "city": []
    },
    {
        "name": "164778",
        "latitude": 50.27956,
        "longitude": 18.94644,
        "country": "PL",
        "iconUrl": "DHL.svg",
        "owner": "DHL",
        "address": "Poland",
        "city": []
    },
    {
        "name": "164779",
        "latitude": 50.243356,
        "longitude": 19.1275189,
        "country": "PL",
        "iconUrl": "DHL.svg",
        "owner": "DHL",
        "address": "Poland",
        "city": []
    },
    {
        "name": "164780",
        "latitude": 50.27551217,
        "longitude": 18.9335973,
        "country": "PL",
        "iconUrl": "DHL.svg",
        "owner": "DHL",
        "address": "Poland",
        "city": []
    },
    {
        "name": "164781",
        "latitude": 53.1075706,
        "longitude": 17.9800635,
        "country": "PL",
        "iconUrl": "DHL.svg",
        "owner": "DHL",
        "address": "Poland",
        "city": []
    },
    {
        "name": "164782",
        "latitude": 50.34620104,
        "longitude": 18.9109704,
        "country": "PL",
        "iconUrl": "DHL.svg",
        "owner": "DHL",
        "address": "Poland",
        "city": []
    },
    {
        "name": "165025",
        "latitude": 50.30459163,
        "longitude": 19.18830677,
        "country": "PL",
        "iconUrl": "DHL.svg",
        "owner": "DHL",
        "address": "Poland",
        "city": []
    },
    {
        "name": "165026",
        "latitude": 52.193213646,
        "longitude": 20.95140474,
        "country": "PL",
        "iconUrl": "DHL.svg",
        "owner": "DHL",
        "address": "Poland",
        "city": []
    },
    {
        "name": "165027",
        "latitude": 50.30153,
        "longitude": 18.82758,
        "country": "PL",
        "iconUrl": "DHL.svg",
        "owner": "DHL",
        "address": "Poland",
        "city": []
    },
    {
        "name": "165028",
        "latitude": 50.264419,
        "longitude": 19.5818115,
        "country": "PL",
        "iconUrl": "DHL.svg",
        "owner": "DHL",
        "address": "Poland",
        "city": []
    },
    {
        "name": "165029",
        "latitude": 51.2325272,
        "longitude": 22.5366398,
        "country": "PL",
        "iconUrl": "DHL.svg",
        "owner": "DHL",
        "address": "Poland",
        "city": []
    },
    {
        "name": "165030",
        "latitude": 53.136061354,
        "longitude": 18.00943943,
        "country": "PL",
        "iconUrl": "DHL.svg",
        "owner": "DHL",
        "address": "Poland",
        "city": []
    },
    {
        "name": "165031",
        "latitude": 51.2402223182,
        "longitude": 22.5155074823,
        "country": "PL",
        "iconUrl": "DHL.svg",
        "owner": "DHL",
        "address": "Poland",
        "city": []
    },
    {
        "name": "165032",
        "latitude": 51.2363254632,
        "longitude": 22.5225976976,
        "country": "PL",
        "iconUrl": "DHL.svg",
        "owner": "DHL",
        "address": "Poland",
        "city": []
    },
    {
        "name": "165033",
        "latitude": 51.2366064449,
        "longitude": 22.5323939976,
        "country": "PL",
        "iconUrl": "DHL.svg",
        "owner": "DHL",
        "address": "Poland",
        "city": []
    },
    {
        "name": "165034",
        "latitude": 51.7454369663,
        "longitude": 19.4837130432,
        "country": "PL",
        "iconUrl": "DHL.svg",
        "owner": "DHL",
        "address": "Poland",
        "city": []
    },
    {
        "name": "165035",
        "latitude": 52.3838114995,
        "longitude": 16.893917911,
        "country": "PL",
        "iconUrl": "DHL.svg",
        "owner": "DHL",
        "address": "Poland",
        "city": []
    },
    {
        "name": "165036",
        "latitude": 51.023734164,
        "longitude": 17.15259076,
        "country": "PL",
        "iconUrl": "DHL.svg",
        "owner": "DHL",
        "address": "Poland",
        "city": []
    },
    {
        "name": "165037",
        "latitude": 51.753771198,
        "longitude": 19.5285895976,
        "country": "PL",
        "iconUrl": "DHL.svg",
        "owner": "DHL",
        "address": "Poland",
        "city": []
    },
    {
        "name": "165038",
        "latitude": 52.38897281,
        "longitude": 20.9272826,
        "country": "PL",
        "iconUrl": "DHL.svg",
        "owner": "DHL",
        "address": "Poland",
        "city": []
    },
    {
        "name": "165039",
        "latitude": 50.1016739057,
        "longitude": 18.5231292692,
        "country": "PL",
        "iconUrl": "DHL.svg",
        "owner": "DHL",
        "address": "Poland",
        "city": []
    },
    {
        "name": "165040",
        "latitude": 51.8006401833,
        "longitude": 19.4107894557,
        "country": "PL",
        "iconUrl": "DHL.svg",
        "owner": "DHL",
        "address": "Poland",
        "city": []
    },
    {
        "name": "165041",
        "latitude": 51.7229571,
        "longitude": 19.44436889,
        "country": "PL",
        "iconUrl": "DHL.svg",
        "owner": "DHL",
        "address": "Poland",
        "city": []
    },
    {
        "name": "165042",
        "latitude": 51.75895644,
        "longitude": 19.54424603,
        "country": "PL",
        "iconUrl": "DHL.svg",
        "owner": "DHL",
        "address": "Poland",
        "city": []
    },
    {
        "name": "165356",
        "latitude": 50.087556,
        "longitude": 19.9649102,
        "country": "PL",
        "iconUrl": "DHL.svg",
        "owner": "DHL",
        "address": "Poland",
        "city": []
    },
    {
        "name": "165357",
        "latitude": 50.0676878,
        "longitude": 19.9449126,
        "country": "PL",
        "iconUrl": "DHL.svg",
        "owner": "DHL",
        "address": "Poland",
        "city": []
    },
    {
        "name": "165358",
        "latitude": 50.0400014,
        "longitude": 19.9256564,
        "country": "PL",
        "iconUrl": "DHL.svg",
        "owner": "DHL",
        "address": "Poland",
        "city": []
    },
    {
        "name": "165359",
        "latitude": 52.3603943,
        "longitude": 16.8158824,
        "country": "PL",
        "iconUrl": "DHL.svg",
        "owner": "DHL",
        "address": "Poland",
        "city": []
    },
    {
        "name": "165360",
        "latitude": 50.3199085,
        "longitude": 19.11662315,
        "country": "PL",
        "iconUrl": "DHL.svg",
        "owner": "DHL",
        "address": "Poland",
        "city": []
    },
    {
        "name": "165438",
        "latitude": 52.2353789417,
        "longitude": 21.1162497529,
        "country": "PL",
        "iconUrl": "DHL.svg",
        "owner": "DHL",
        "address": "Poland",
        "city": []
    },
    {
        "name": "165439",
        "latitude": 54.605317,
        "longitude": 18.225355,
        "country": "PL",
        "iconUrl": "DHL.svg",
        "owner": "DHL",
        "address": "Poland",
        "city": []
    },
    {
        "name": "165440",
        "latitude": 50.30127,
        "longitude": 18.83347,
        "country": "PL",
        "iconUrl": "DHL.svg",
        "owner": "DHL",
        "address": "Poland",
        "city": []
    },
    {
        "name": "165441",
        "latitude": 50.073849,
        "longitude": 19.889392,
        "country": "PL",
        "iconUrl": "DHL.svg",
        "owner": "DHL",
        "address": "Poland",
        "city": []
    },
    {
        "name": "165442",
        "latitude": 50.31936,
        "longitude": 19.17146,
        "country": "PL",
        "iconUrl": "DHL.svg",
        "owner": "DHL",
        "address": "Poland",
        "city": []
    },
    {
        "name": "165443",
        "latitude": 52.416995,
        "longitude": 16.889614,
        "country": "PL",
        "iconUrl": "DHL.svg",
        "owner": "DHL",
        "address": "Poland",
        "city": []
    },
    {
        "name": "165444",
        "latitude": 51.23947,
        "longitude": 22.59116,
        "country": "PL",
        "iconUrl": "DHL.svg",
        "owner": "DHL",
        "address": "Poland",
        "city": []
    },
    {
        "name": "165445",
        "latitude": 50.00558885,
        "longitude": 19.94766291,
        "country": "PL",
        "iconUrl": "DHL.svg",
        "owner": "DHL",
        "address": "Poland",
        "city": []
    },
    {
        "name": "165446",
        "latitude": 51.7365817072,
        "longitude": 19.4772854034,
        "country": "PL",
        "iconUrl": "DHL.svg",
        "owner": "DHL",
        "address": "Poland",
        "city": []
    },
    {
        "name": "165447",
        "latitude": 51.7304038,
        "longitude": 19.5045398,
        "country": "PL",
        "iconUrl": "DHL.svg",
        "owner": "DHL",
        "address": "Poland",
        "city": []
    },
    {
        "name": "165448",
        "latitude": 51.7339504,
        "longitude": 19.5052059,
        "country": "PL",
        "iconUrl": "DHL.svg",
        "owner": "DHL",
        "address": "Poland",
        "city": []
    },
    {
        "name": "165449",
        "latitude": 53.1284701,
        "longitude": 18.0490807,
        "country": "PL",
        "iconUrl": "DHL.svg",
        "owner": "DHL",
        "address": "Poland",
        "city": []
    },
    {
        "name": "165680",
        "latitude": 51.268155963,
        "longitude": 22.54228518,
        "country": "PL",
        "iconUrl": "DHL.svg",
        "owner": "DHL",
        "address": "Poland",
        "city": []
    },
    {
        "name": "165681",
        "latitude": 51.7597427758,
        "longitude": 19.5549063553,
        "country": "PL",
        "iconUrl": "DHL.svg",
        "owner": "DHL",
        "address": "Poland",
        "city": []
    },
    {
        "name": "165682",
        "latitude": 51.6549463,
        "longitude": 19.3830897,
        "country": "PL",
        "iconUrl": "DHL.svg",
        "owner": "DHL",
        "address": "Poland",
        "city": []
    },
    {
        "name": "165683",
        "latitude": 51.77646784,
        "longitude": 19.42427492,
        "country": "PL",
        "iconUrl": "DHL.svg",
        "owner": "DHL",
        "address": "Poland",
        "city": []
    },
    {
        "name": "165766",
        "latitude": 54.6056443059,
        "longitude": 18.2394468112,
        "country": "PL",
        "iconUrl": "DHL.svg",
        "owner": "DHL",
        "address": "Poland",
        "city": []
    },
    {
        "name": "165767",
        "latitude": 51.71799218,
        "longitude": 19.4832154,
        "country": "PL",
        "iconUrl": "DHL.svg",
        "owner": "DHL",
        "address": "Poland",
        "city": []
    },
    {
        "name": "165768",
        "latitude": 51.2673892605,
        "longitude": 22.5412149332,
        "country": "PL",
        "iconUrl": "DHL.svg",
        "owner": "DHL",
        "address": "Poland",
        "city": []
    },
    {
        "name": "165769",
        "latitude": 50.1129308826,
        "longitude": 18.962685597,
        "country": "PL",
        "iconUrl": "DHL.svg",
        "owner": "DHL",
        "address": "Poland",
        "city": []
    },
    {
        "name": "165770",
        "latitude": 50.274345325,
        "longitude": 19.12273587,
        "country": "PL",
        "iconUrl": "DHL.svg",
        "owner": "DHL",
        "address": "Poland",
        "city": []
    },
    {
        "name": "165771",
        "latitude": 53.79795765,
        "longitude": 20.5023061,
        "country": "PL",
        "iconUrl": "DHL.svg",
        "owner": "DHL",
        "address": "Poland",
        "city": []
    },
    {
        "name": "165772",
        "latitude": 54.565121817,
        "longitude": 18.4116372098,
        "country": "PL",
        "iconUrl": "DHL.svg",
        "owner": "DHL",
        "address": "Poland",
        "city": []
    },
    {
        "name": "165773",
        "latitude": 51.276856,
        "longitude": 22.58237754,
        "country": "PL",
        "iconUrl": "DHL.svg",
        "owner": "DHL",
        "address": "Poland",
        "city": []
    },
    {
        "name": "165982",
        "latitude": 52.426778892,
        "longitude": 16.947484896,
        "country": "PL",
        "iconUrl": "DHL.svg",
        "owner": "DHL",
        "address": "Poland",
        "city": []
    },
    {
        "name": "165983",
        "latitude": 51.746524078,
        "longitude": 19.397587153,
        "country": "PL",
        "iconUrl": "DHL.svg",
        "owner": "DHL",
        "address": "Poland",
        "city": []
    },
    {
        "name": "165984",
        "latitude": 52.31636364,
        "longitude": 20.96651433,
        "country": "PL",
        "iconUrl": "DHL.svg",
        "owner": "DHL",
        "address": "Poland",
        "city": []
    },
    {
        "name": "165985",
        "latitude": 52.392522116,
        "longitude": 20.930419958,
        "country": "PL",
        "iconUrl": "DHL.svg",
        "owner": "DHL",
        "address": "Poland",
        "city": []
    },
    {
        "name": "165986",
        "latitude": 50.29280056,
        "longitude": 18.91661202,
        "country": "PL",
        "iconUrl": "DHL.svg",
        "owner": "DHL",
        "address": "Poland",
        "city": []
    },
    {
        "name": "166170",
        "latitude": 54.43186478,
        "longitude": 18.47045602,
        "country": "PL",
        "iconUrl": "DHL.svg",
        "owner": "DHL",
        "address": "Poland",
        "city": []
    },
    {
        "name": "166171",
        "latitude": 51.75723196,
        "longitude": 19.54959785,
        "country": "PL",
        "iconUrl": "DHL.svg",
        "owner": "DHL",
        "address": "Poland",
        "city": []
    },
    {
        "name": "166172",
        "latitude": 51.7314661,
        "longitude": 19.47951072,
        "country": "PL",
        "iconUrl": "DHL.svg",
        "owner": "DHL",
        "address": "Poland",
        "city": []
    },
    {
        "name": "166173",
        "latitude": 50.167844,
        "longitude": 18.903418,
        "country": "PL",
        "iconUrl": "DHL.svg",
        "owner": "DHL",
        "address": "Poland",
        "city": []
    },
    {
        "name": "166174",
        "latitude": 51.26801296,
        "longitude": 22.51090002,
        "country": "PL",
        "iconUrl": "DHL.svg",
        "owner": "DHL",
        "address": "Poland",
        "city": []
    },
    {
        "name": "166175",
        "latitude": 50.2622845464,
        "longitude": 19.060699026,
        "country": "PL",
        "iconUrl": "DHL.svg",
        "owner": "DHL",
        "address": "Poland",
        "city": []
    },
    {
        "name": "166161",
        "latitude": 51.2642559868,
        "longitude": 22.5214122264,
        "country": "PL",
        "iconUrl": "DHL.svg",
        "owner": "DHL",
        "address": "Poland",
        "city": []
    },
    {
        "name": "166162",
        "latitude": 50.298068,
        "longitude": 18.65573798,
        "country": "PL",
        "iconUrl": "DHL.svg",
        "owner": "DHL",
        "address": "Poland",
        "city": []
    },
    {
        "name": "167119",
        "latitude": 51.2348953325,
        "longitude": 22.5103261668,
        "country": "PL",
        "iconUrl": "DHL.svg",
        "owner": "DHL",
        "address": "Poland",
        "city": []
    },
    {
        "name": "167120",
        "latitude": 52.281481361,
        "longitude": 21.1227991113,
        "country": "PL",
        "iconUrl": "DHL.svg",
        "owner": "DHL",
        "address": "Poland",
        "city": []
    },
    {
        "name": "167121",
        "latitude": 51.2292895412,
        "longitude": 22.5829754976,
        "country": "PL",
        "iconUrl": "DHL.svg",
        "owner": "DHL",
        "address": "Poland",
        "city": []
    },
    {
        "name": "167122",
        "latitude": 54.33681999,
        "longitude": 18.61233257,
        "country": "PL",
        "iconUrl": "DHL.svg",
        "owner": "DHL",
        "address": "Poland",
        "city": []
    },
    {
        "name": "167123",
        "latitude": 51.2082607533,
        "longitude": 22.6942441264,
        "country": "PL",
        "iconUrl": "DHL.svg",
        "owner": "DHL",
        "address": "Poland",
        "city": []
    },
    {
        "name": "167124",
        "latitude": 53.7702767233,
        "longitude": 20.4665136549,
        "country": "PL",
        "iconUrl": "DHL.svg",
        "owner": "DHL",
        "address": "Poland",
        "city": []
    },
    {
        "name": "167125",
        "latitude": 52.0837347407,
        "longitude": 21.0207346175,
        "country": "PL",
        "iconUrl": "DHL.svg",
        "owner": "DHL",
        "address": "Poland",
        "city": []
    },
    {
        "name": "167126",
        "latitude": 53.1554052515,
        "longitude": 18.1637109823,
        "country": "PL",
        "iconUrl": "DHL.svg",
        "owner": "DHL",
        "address": "Poland",
        "city": []
    },
    {
        "name": "169996",
        "latitude": 52.3052578755,
        "longitude": 21.0886582188,
        "country": "PL",
        "iconUrl": "DHL.svg",
        "owner": "DHL",
        "address": "Poland",
        "city": []
    },
    {
        "name": "169997",
        "latitude": 51.8576093326,
        "longitude": 19.4268056542,
        "country": "PL",
        "iconUrl": "DHL.svg",
        "owner": "DHL",
        "address": "Poland",
        "city": []
    },
    {
        "name": "169998",
        "latitude": 50.0425376459,
        "longitude": 21.993303611,
        "country": "PL",
        "iconUrl": "DHL.svg",
        "owner": "DHL",
        "address": "Poland",
        "city": []
    },
    {
        "name": "169999",
        "latitude": 50.0871293245,
        "longitude": 20.0145276264,
        "country": "PL",
        "iconUrl": "DHL.svg",
        "owner": "DHL",
        "address": "Poland",
        "city": []
    },
    {
        "name": "170000",
        "latitude": 52.2378514711,
        "longitude": 21.1059828032,
        "country": "PL",
        "iconUrl": "DHL.svg",
        "owner": "DHL",
        "address": "Poland",
        "city": []
    },
    {
        "name": "170001",
        "latitude": 50.0626125271,
        "longitude": 21.9783617975,
        "country": "PL",
        "iconUrl": "DHL.svg",
        "owner": "DHL",
        "address": "Poland",
        "city": []
    },
    {
        "name": "170002",
        "latitude": 50.0513854195,
        "longitude": 21.990168258,
        "country": "PL",
        "iconUrl": "DHL.svg",
        "owner": "DHL",
        "address": "Poland",
        "city": []
    },
    {
        "name": "170003",
        "latitude": 53.9885764399,
        "longitude": 20.3923547689,
        "country": "PL",
        "iconUrl": "DHL.svg",
        "owner": "DHL",
        "address": "Poland",
        "city": []
    },
    {
        "name": "170213",
        "latitude": 53.7839998367,
        "longitude": 20.4829109977,
        "country": "PL",
        "iconUrl": "DHL.svg",
        "owner": "DHL",
        "address": "Poland",
        "city": []
    },
    {
        "name": "170214",
        "latitude": 50.0767875936,
        "longitude": 19.9842682558,
        "country": "PL",
        "iconUrl": "DHL.svg",
        "owner": "DHL",
        "address": "Poland",
        "city": []
    },
    {
        "name": "170215",
        "latitude": 51.0457043746,
        "longitude": 16.9710746822,
        "country": "PL",
        "iconUrl": "DHL.svg",
        "owner": "DHL",
        "address": "Poland",
        "city": []
    },
    {
        "name": "170216",
        "latitude": 53.133674089,
        "longitude": 18.0007129399,
        "country": "PL",
        "iconUrl": "DHL.svg",
        "owner": "DHL",
        "address": "Poland",
        "city": []
    },
    {
        "name": "170217",
        "latitude": 50.0329214747,
        "longitude": 18.6934653176,
        "country": "PL",
        "iconUrl": "DHL.svg",
        "owner": "DHL",
        "address": "Poland",
        "city": []
    },
    {
        "name": "170218",
        "latitude": 51.098097482,
        "longitude": 17.0187889264,
        "country": "PL",
        "iconUrl": "DHL.svg",
        "owner": "DHL",
        "address": "Poland",
        "city": []
    },
    {
        "name": "170219",
        "latitude": 52.24776,
        "longitude": 20.91529,
        "country": "PL",
        "iconUrl": "DHL.svg",
        "owner": "DHL",
        "address": "Poland",
        "city": []
    },
    {
        "name": "170210",
        "latitude": 52.19766,
        "longitude": 21.44444,
        "country": "PL",
        "iconUrl": "DHL.svg",
        "owner": "DHL",
        "address": "Poland",
        "city": []
    },
    {
        "name": "170211",
        "latitude": 52.1383505455,
        "longitude": 21.0631123638,
        "country": "PL",
        "iconUrl": "DHL.svg",
        "owner": "DHL",
        "address": "Poland",
        "city": []
    },
    {
        "name": "170555",
        "latitude": 51.75877034,
        "longitude": 19.53545434,
        "country": "PL",
        "iconUrl": "DHL.svg",
        "owner": "DHL",
        "address": "Poland",
        "city": []
    },
    {
        "name": "170557",
        "latitude": 50.287372666,
        "longitude": 18.665461778,
        "country": "PL",
        "iconUrl": "DHL.svg",
        "owner": "DHL",
        "address": "Poland",
        "city": []
    },
    {
        "name": "170558",
        "latitude": 50.2803168759,
        "longitude": 19.1413329384,
        "country": "PL",
        "iconUrl": "DHL.svg",
        "owner": "DHL",
        "address": "Poland",
        "city": []
    },
    {
        "name": "170559",
        "latitude": 50.086653268,
        "longitude": 19.906999,
        "country": "PL",
        "iconUrl": "DHL.svg",
        "owner": "DHL",
        "address": "Poland",
        "city": []
    },
    {
        "name": "170560",
        "latitude": 50.081032971,
        "longitude": 20.013597507,
        "country": "PL",
        "iconUrl": "DHL.svg",
        "owner": "DHL",
        "address": "Poland",
        "city": []
    },
    {
        "name": "170561",
        "latitude": 50.3257368927,
        "longitude": 18.654482841,
        "country": "PL",
        "iconUrl": "DHL.svg",
        "owner": "DHL",
        "address": "Poland",
        "city": []
    },
    {
        "name": "170562",
        "latitude": 50.3479651709,
        "longitude": 18.918856073,
        "country": "PL",
        "iconUrl": "DHL.svg",
        "owner": "DHL",
        "address": "Poland",
        "city": []
    },
    {
        "name": "170563",
        "latitude": 49.9887180128,
        "longitude": 20.0428586,
        "country": "PL",
        "iconUrl": "DHL.svg",
        "owner": "DHL",
        "address": "Poland",
        "city": []
    },
    {
        "name": "170564",
        "latitude": 50.2834193237,
        "longitude": 18.682159054,
        "country": "PL",
        "iconUrl": "DHL.svg",
        "owner": "DHL",
        "address": "Poland",
        "city": []
    },
    {
        "name": "170565",
        "latitude": 50.301574558,
        "longitude": 19.102632558,
        "country": "PL",
        "iconUrl": "DHL.svg",
        "owner": "DHL",
        "address": "Poland",
        "city": []
    },
    {
        "name": "171268",
        "latitude": 52.212718,
        "longitude": 20.802332,
        "country": "PL",
        "iconUrl": "DHL.svg",
        "owner": "DHL",
        "address": "Poland",
        "city": []
    },
    {
        "name": "171269",
        "latitude": 52.1993436438,
        "longitude": 20.873141897,
        "country": "PL",
        "iconUrl": "DHL.svg",
        "owner": "DHL",
        "address": "Poland",
        "city": []
    },
    {
        "name": "171270",
        "latitude": 50.08112,
        "longitude": 18.504731,
        "country": "PL",
        "iconUrl": "DHL.svg",
        "owner": "DHL",
        "address": "Poland",
        "city": []
    },
    {
        "name": "171271",
        "latitude": 50.3091935217,
        "longitude": 18.9499585398,
        "country": "PL",
        "iconUrl": "DHL.svg",
        "owner": "DHL",
        "address": "Poland",
        "city": []
    },
    {
        "name": "171272",
        "latitude": 53.16191744,
        "longitude": 18.16518974,
        "country": "PL",
        "iconUrl": "DHL.svg",
        "owner": "DHL",
        "address": "Poland",
        "city": []
    },
    {
        "name": "171273",
        "latitude": 50.2919364988,
        "longitude": 19.1821564508,
        "country": "PL",
        "iconUrl": "DHL.svg",
        "owner": "DHL",
        "address": "Poland",
        "city": []
    },
    {
        "name": "171274",
        "latitude": 52.2869665742,
        "longitude": 21.1188103723,
        "country": "PL",
        "iconUrl": "DHL.svg",
        "owner": "DHL",
        "address": "Poland",
        "city": []
    },
    {
        "name": "171275",
        "latitude": 53.13684597,
        "longitude": 18.01488529,
        "country": "PL",
        "iconUrl": "DHL.svg",
        "owner": "DHL",
        "address": "Poland",
        "city": []
    },
    {
        "name": "171276",
        "latitude": 53.1332953902,
        "longitude": 18.0329520395,
        "country": "PL",
        "iconUrl": "DHL.svg",
        "owner": "DHL",
        "address": "Poland",
        "city": []
    },
    {
        "name": "171277",
        "latitude": 50.08445624,
        "longitude": 19.92932283,
        "country": "PL",
        "iconUrl": "DHL.svg",
        "owner": "DHL",
        "address": "Poland",
        "city": []
    },
    {
        "name": "171278",
        "latitude": 51.8613560027,
        "longitude": 19.3878635755,
        "country": "PL",
        "iconUrl": "DHL.svg",
        "owner": "DHL",
        "address": "Poland",
        "city": []
    },
    {
        "name": "171279",
        "latitude": 52.4271123067,
        "longitude": 20.7200319265,
        "country": "PL",
        "iconUrl": "DHL.svg",
        "owner": "DHL",
        "address": "Poland",
        "city": []
    },
    {
        "name": "172106",
        "latitude": 50.0944060464,
        "longitude": 20.003642913,
        "country": "PL",
        "iconUrl": "DHL.svg",
        "owner": "DHL",
        "address": "Poland",
        "city": []
    },
    {
        "name": "172107",
        "latitude": 51.7387445629,
        "longitude": 19.5689575823,
        "country": "PL",
        "iconUrl": "DHL.svg",
        "owner": "DHL",
        "address": "Poland",
        "city": []
    },
    {
        "name": "171611",
        "latitude": 50.3688584724,
        "longitude": 18.848084642,
        "country": "PL",
        "iconUrl": "DHL.svg",
        "owner": "DHL",
        "address": "Poland",
        "city": []
    },
    {
        "name": "171612",
        "latitude": 50.0143902,
        "longitude": 19.92755178,
        "country": "PL",
        "iconUrl": "DHL.svg",
        "owner": "DHL",
        "address": "Poland",
        "city": []
    },
    {
        "name": "171613",
        "latitude": 51.8622477806,
        "longitude": 19.3809948633,
        "country": "PL",
        "iconUrl": "DHL.svg",
        "owner": "DHL",
        "address": "Poland",
        "city": []
    },
    {
        "name": "171614",
        "latitude": 51.72959,
        "longitude": 19.46177,
        "country": "PL",
        "iconUrl": "DHL.svg",
        "owner": "DHL",
        "address": "Poland",
        "city": []
    },
    {
        "name": "171615",
        "latitude": 52.099614,
        "longitude": 21.054075,
        "country": "PL",
        "iconUrl": "DHL.svg",
        "owner": "DHL",
        "address": "Poland",
        "city": []
    },
    {
        "name": "171617",
        "latitude": 51.13928004,
        "longitude": 16.97330418,
        "country": "PL",
        "iconUrl": "DHL.svg",
        "owner": "DHL",
        "address": "Poland",
        "city": []
    },
    {
        "name": "171618",
        "latitude": 51.2150484904,
        "longitude": 22.6891371695,
        "country": "PL",
        "iconUrl": "DHL.svg",
        "owner": "DHL",
        "address": "Poland",
        "city": []
    },
    {
        "name": "171619",
        "latitude": 51.76235476,
        "longitude": 19.50717796,
        "country": "PL",
        "iconUrl": "DHL.svg",
        "owner": "DHL",
        "address": "Poland",
        "city": []
    },
    {
        "name": "171620",
        "latitude": 50.06595,
        "longitude": 20.05033,
        "country": "PL",
        "iconUrl": "DHL.svg",
        "owner": "DHL",
        "address": "Poland",
        "city": []
    },
    {
        "name": "171621",
        "latitude": 51.7586955476,
        "longitude": 19.5209891258,
        "country": "PL",
        "iconUrl": "DHL.svg",
        "owner": "DHL",
        "address": "Poland",
        "city": []
    },
    {
        "name": "171622",
        "latitude": 52.393895,
        "longitude": 20.936914,
        "country": "PL",
        "iconUrl": "DHL.svg",
        "owner": "DHL",
        "address": "Poland",
        "city": []
    },
    {
        "name": "171623",
        "latitude": 50.2406530165,
        "longitude": 19.1366163182,
        "country": "PL",
        "iconUrl": "DHL.svg",
        "owner": "DHL",
        "address": "Poland",
        "city": []
    },
    {
        "name": "171624",
        "latitude": 51.6603447079,
        "longitude": 19.3365069957,
        "country": "PL",
        "iconUrl": "DHL.svg",
        "owner": "DHL",
        "address": "Poland",
        "city": []
    },
    {
        "name": "171625",
        "latitude": 54.618758399,
        "longitude": 18.1722502977,
        "country": "PL",
        "iconUrl": "DHL.svg",
        "owner": "DHL",
        "address": "Poland",
        "city": []
    },
    {
        "name": "171626",
        "latitude": 50.2976241067,
        "longitude": 18.9389991768,
        "country": "PL",
        "iconUrl": "DHL.svg",
        "owner": "DHL",
        "address": "Poland",
        "city": []
    },
    {
        "name": "171627",
        "latitude": 51.7417847835,
        "longitude": 19.504860458,
        "country": "PL",
        "iconUrl": "DHL.svg",
        "owner": "DHL",
        "address": "Poland",
        "city": []
    },
    {
        "name": "171628",
        "latitude": 53.1261135897,
        "longitude": 18.0481686977,
        "country": "PL",
        "iconUrl": "DHL.svg",
        "owner": "DHL",
        "address": "Poland",
        "city": []
    },
    {
        "name": "171629",
        "latitude": 50.210638,
        "longitude": 19.261099,
        "country": "PL",
        "iconUrl": "DHL.svg",
        "owner": "DHL",
        "address": "Poland",
        "city": []
    },
    {
        "name": "171630",
        "latitude": 50.3214919875,
        "longitude": 19.0991677372,
        "country": "PL",
        "iconUrl": "DHL.svg",
        "owner": "DHL",
        "address": "Poland",
        "city": []
    },
    {
        "name": "171631",
        "latitude": 51.253816873,
        "longitude": 22.531055662,
        "country": "PL",
        "iconUrl": "DHL.svg",
        "owner": "DHL",
        "address": "Poland",
        "city": []
    },
    {
        "name": "171632",
        "latitude": 50.0764494089,
        "longitude": 19.1728035972,
        "country": "PL",
        "iconUrl": "DHL.svg",
        "owner": "DHL",
        "address": "Poland",
        "city": []
    },
    {
        "name": "171633",
        "latitude": 51.7865471168,
        "longitude": 19.4597132461,
        "country": "PL",
        "iconUrl": "DHL.svg",
        "owner": "DHL",
        "address": "Poland",
        "city": []
    },
    {
        "name": "171634",
        "latitude": 51.7475472705,
        "longitude": 19.5740765823,
        "country": "PL",
        "iconUrl": "DHL.svg",
        "owner": "DHL",
        "address": "Poland",
        "city": []
    },
    {
        "name": "172108",
        "latitude": 49.9191279387,
        "longitude": 18.5339587829,
        "country": "PL",
        "iconUrl": "DHL.svg",
        "owner": "DHL",
        "address": "Poland",
        "city": []
    },
    {
        "name": "172109",
        "latitude": 50.313034149,
        "longitude": 18.8856049084,
        "country": "PL",
        "iconUrl": "DHL.svg",
        "owner": "DHL",
        "address": "Poland",
        "city": []
    },
    {
        "name": "172110",
        "latitude": 50.3161931523,
        "longitude": 19.1183584259,
        "country": "PL",
        "iconUrl": "DHL.svg",
        "owner": "DHL",
        "address": "Poland",
        "city": []
    },
    {
        "name": "172111",
        "latitude": 51.797131308,
        "longitude": 19.4414118473,
        "country": "PL",
        "iconUrl": "DHL.svg",
        "owner": "DHL",
        "address": "Poland",
        "city": []
    },
    {
        "name": "172112",
        "latitude": 51.2342381343,
        "longitude": 22.5867501399,
        "country": "PL",
        "iconUrl": "DHL.svg",
        "owner": "DHL",
        "address": "Poland",
        "city": []
    },
    {
        "name": "172113",
        "latitude": 51.75469832,
        "longitude": 19.4712708,
        "country": "PL",
        "iconUrl": "DHL.svg",
        "owner": "DHL",
        "address": "Poland",
        "city": []
    },
    {
        "name": "172114",
        "latitude": 50.274935,
        "longitude": 18.87154,
        "country": "PL",
        "iconUrl": "DHL.svg",
        "owner": "DHL",
        "address": "Poland",
        "city": []
    },
    {
        "name": "172234",
        "latitude": 51.748751,
        "longitude": 19.478243,
        "country": "PL",
        "iconUrl": "DHL.svg",
        "owner": "DHL",
        "address": "Poland",
        "city": []
    },
    {
        "name": "172235",
        "latitude": 50.3069119001,
        "longitude": 18.9440485668,
        "country": "PL",
        "iconUrl": "DHL.svg",
        "owner": "DHL",
        "address": "Poland",
        "city": []
    },
    {
        "name": "172236",
        "latitude": 50.0805601372,
        "longitude": 19.9245442399,
        "country": "PL",
        "iconUrl": "DHL.svg",
        "owner": "DHL",
        "address": "Poland",
        "city": []
    },
    {
        "name": "172237",
        "latitude": 50.309276,
        "longitude": 18.755383,
        "country": "PL",
        "iconUrl": "DHL.svg",
        "owner": "DHL",
        "address": "Poland",
        "city": []
    },
    {
        "name": "172238",
        "latitude": 50.103942,
        "longitude": 19.325988,
        "country": "PL",
        "iconUrl": "DHL.svg",
        "owner": "DHL",
        "address": "Poland",
        "city": []
    },
    {
        "name": "172239",
        "latitude": 51.7685503684,
        "longitude": 19.4633818264,
        "country": "PL",
        "iconUrl": "DHL.svg",
        "owner": "DHL",
        "address": "Poland",
        "city": []
    },
    {
        "name": "172240",
        "latitude": 50.196995,
        "longitude": 19.275997,
        "country": "PL",
        "iconUrl": "DHL.svg",
        "owner": "DHL",
        "address": "Poland",
        "city": []
    },
    {
        "name": "172241",
        "latitude": 50.278859,
        "longitude": 19.129193,
        "country": "PL",
        "iconUrl": "DHL.svg",
        "owner": "DHL",
        "address": "Poland",
        "city": []
    },
    {
        "name": "172242",
        "latitude": 50.0097381169,
        "longitude": 19.9650276288,
        "country": "PL",
        "iconUrl": "DHL.svg",
        "owner": "DHL",
        "address": "Poland",
        "city": []
    },
    {
        "name": "172243",
        "latitude": 53.127314,
        "longitude": 18.060986,
        "country": "PL",
        "iconUrl": "DHL.svg",
        "owner": "DHL",
        "address": "Poland",
        "city": []
    },
    {
        "name": "172244",
        "latitude": 52.346579,
        "longitude": 21.254948,
        "country": "PL",
        "iconUrl": "DHL.svg",
        "owner": "DHL",
        "address": "Poland",
        "city": []
    },
    {
        "name": "172245",
        "latitude": 54.54245417,
        "longitude": 18.45746897,
        "country": "PL",
        "iconUrl": "DHL.svg",
        "owner": "DHL",
        "address": "Poland",
        "city": []
    },
    {
        "name": "172233",
        "latitude": 52.25623689,
        "longitude": 20.91771825,
        "country": "PL",
        "iconUrl": "DHL.svg",
        "owner": "DHL",
        "address": "Poland",
        "city": []
    },
    {
        "name": "172246",
        "latitude": 52.16095,
        "longitude": 21.02567,
        "country": "PL",
        "iconUrl": "DHL.svg",
        "owner": "DHL",
        "address": "Poland",
        "city": []
    },
    {
        "name": "172247",
        "latitude": 50.3183851929,
        "longitude": 19.1649344282,
        "country": "PL",
        "iconUrl": "DHL.svg",
        "owner": "DHL",
        "address": "Poland",
        "city": []
    },
    {
        "name": "172248",
        "latitude": 50.3185196162,
        "longitude": 19.0728271644,
        "country": "PL",
        "iconUrl": "DHL.svg",
        "owner": "DHL",
        "address": "Poland",
        "city": []
    },
    {
        "name": "172249",
        "latitude": 50.2039390533,
        "longitude": 18.9886293606,
        "country": "PL",
        "iconUrl": "DHL.svg",
        "owner": "DHL",
        "address": "Poland",
        "city": []
    },
    {
        "name": "172250",
        "latitude": 50.314842,
        "longitude": 18.8493,
        "country": "PL",
        "iconUrl": "DHL.svg",
        "owner": "DHL",
        "address": "Poland",
        "city": []
    },
    {
        "name": "172251",
        "latitude": 51.8523108039,
        "longitude": 19.4355343447,
        "country": "PL",
        "iconUrl": "DHL.svg",
        "owner": "DHL",
        "address": "Poland",
        "city": []
    },
    {
        "name": "172516",
        "latitude": 50.01574,
        "longitude": 20.01238,
        "country": "PL",
        "iconUrl": "DHL.svg",
        "owner": "DHL",
        "address": "Poland",
        "city": []
    },
    {
        "name": "172517",
        "latitude": 50.09084762,
        "longitude": 18.9950484,
        "country": "PL",
        "iconUrl": "DHL.svg",
        "owner": "DHL",
        "address": "Poland",
        "city": []
    },
    {
        "name": "172518",
        "latitude": 50.29139299,
        "longitude": 19.11593338,
        "country": "PL",
        "iconUrl": "DHL.svg",
        "owner": "DHL",
        "address": "Poland",
        "city": []
    },
    {
        "name": "172519",
        "latitude": 51.25407348,
        "longitude": 22.5627259,
        "country": "PL",
        "iconUrl": "DHL.svg",
        "owner": "DHL",
        "address": "Poland",
        "city": []
    },
    {
        "name": "172520",
        "latitude": 52.34313077,
        "longitude": 21.12204854,
        "country": "PL",
        "iconUrl": "DHL.svg",
        "owner": "DHL",
        "address": "Poland",
        "city": []
    },
    {
        "name": "172521",
        "latitude": 50.0101781167,
        "longitude": 20.0104819916,
        "country": "PL",
        "iconUrl": "DHL.svg",
        "owner": "DHL",
        "address": "Poland",
        "city": []
    },
    {
        "name": "172522",
        "latitude": 50.2976081734,
        "longitude": 19.1574280726,
        "country": "PL",
        "iconUrl": "DHL.svg",
        "owner": "DHL",
        "address": "Poland",
        "city": []
    },
    {
        "name": "172523",
        "latitude": 52.15846,
        "longitude": 21.0201,
        "country": "PL",
        "iconUrl": "DHL.svg",
        "owner": "DHL",
        "address": "Poland",
        "city": []
    },
    {
        "name": "172524",
        "latitude": 51.6583317252,
        "longitude": 19.3496017364,
        "country": "PL",
        "iconUrl": "DHL.svg",
        "owner": "DHL",
        "address": "Poland",
        "city": []
    },
    {
        "name": "172525",
        "latitude": 52.10574779,
        "longitude": 21.2609851353,
        "country": "PL",
        "iconUrl": "DHL.svg",
        "owner": "DHL",
        "address": "Poland",
        "city": []
    },
    {
        "name": "172526",
        "latitude": 52.063177,
        "longitude": 21.01621,
        "country": "PL",
        "iconUrl": "DHL.svg",
        "owner": "DHL",
        "address": "Poland",
        "city": []
    },
    {
        "name": "172527",
        "latitude": 51.740737,
        "longitude": 19.405721,
        "country": "PL",
        "iconUrl": "DHL.svg",
        "owner": "DHL",
        "address": "Poland",
        "city": []
    },
    {
        "name": "172528",
        "latitude": 52.2744105,
        "longitude": 20.9387257,
        "country": "PL",
        "iconUrl": "DHL.svg",
        "owner": "DHL",
        "address": "Poland",
        "city": []
    },
    {
        "name": "172529",
        "latitude": 52.2740298,
        "longitude": 21.0802082,
        "country": "PL",
        "iconUrl": "DHL.svg",
        "owner": "DHL",
        "address": "Poland",
        "city": []
    },
    {
        "name": "172530",
        "latitude": 50.2773966586,
        "longitude": 18.6565773932,
        "country": "PL",
        "iconUrl": "DHL.svg",
        "owner": "DHL",
        "address": "Poland",
        "city": []
    },
    {
        "name": "172531",
        "latitude": 50.309957,
        "longitude": 18.616383,
        "country": "PL",
        "iconUrl": "DHL.svg",
        "owner": "DHL",
        "address": "Poland",
        "city": []
    },
    {
        "name": "172532",
        "latitude": 50.282939196,
        "longitude": 18.9636096045,
        "country": "PL",
        "iconUrl": "DHL.svg",
        "owner": "DHL",
        "address": "Poland",
        "city": []
    },
    {
        "name": "173080",
        "latitude": 52.1596267941,
        "longitude": 20.7847529625,
        "country": "PL",
        "iconUrl": "DHL.svg",
        "owner": "DHL",
        "address": "Poland",
        "city": []
    },
    {
        "name": "173081",
        "latitude": 54.4013532021,
        "longitude": 18.6084595778,
        "country": "PL",
        "iconUrl": "DHL.svg",
        "owner": "DHL",
        "address": "Poland",
        "city": []
    },
    {
        "name": "173082",
        "latitude": 50.0891688789,
        "longitude": 19.9277313846,
        "country": "PL",
        "iconUrl": "DHL.svg",
        "owner": "DHL",
        "address": "Poland",
        "city": []
    },
    {
        "name": "172931",
        "latitude": 50.0596303,
        "longitude": 21.9937374,
        "country": "PL",
        "iconUrl": "DHL.svg",
        "owner": "DHL",
        "address": "Poland",
        "city": []
    },
    {
        "name": "172932",
        "latitude": 51.2547849744,
        "longitude": 22.5370287264,
        "country": "PL",
        "iconUrl": "DHL.svg",
        "owner": "DHL",
        "address": "Poland",
        "city": []
    },
    {
        "name": "172933",
        "latitude": 50.0242768113,
        "longitude": 19.9703601711,
        "country": "PL",
        "iconUrl": "DHL.svg",
        "owner": "DHL",
        "address": "Poland",
        "city": []
    },
    {
        "name": "172934",
        "latitude": 51.651326113,
        "longitude": 19.3829517265,
        "country": "PL",
        "iconUrl": "DHL.svg",
        "owner": "DHL",
        "address": "Poland",
        "city": []
    },
    {
        "name": "172935",
        "latitude": 50.2243407188,
        "longitude": 18.9702152687,
        "country": "PL",
        "iconUrl": "DHL.svg",
        "owner": "DHL",
        "address": "Poland",
        "city": []
    },
    {
        "name": "172936",
        "latitude": 53.1438912841,
        "longitude": 17.9487749093,
        "country": "PL",
        "iconUrl": "DHL.svg",
        "owner": "DHL",
        "address": "Poland",
        "city": []
    },
    {
        "name": "172937",
        "latitude": 52.24649579,
        "longitude": 21.18828372,
        "country": "PL",
        "iconUrl": "DHL.svg",
        "owner": "DHL",
        "address": "Poland",
        "city": []
    },
    {
        "name": "172938",
        "latitude": 53.12534499,
        "longitude": 17.94667378,
        "country": "PL",
        "iconUrl": "DHL.svg",
        "owner": "DHL",
        "address": "Poland",
        "city": []
    },
    {
        "name": "172939",
        "latitude": 50.3232558204,
        "longitude": 18.9970606101,
        "country": "PL",
        "iconUrl": "DHL.svg",
        "owner": "DHL",
        "address": "Poland",
        "city": []
    },
    {
        "name": "172940",
        "latitude": 51.8560119327,
        "longitude": 19.4168751902,
        "country": "PL",
        "iconUrl": "DHL.svg",
        "owner": "DHL",
        "address": "Poland",
        "city": []
    },
    {
        "name": "172941",
        "latitude": 50.159408,
        "longitude": 19.473853,
        "country": "PL",
        "iconUrl": "DHL.svg",
        "owner": "DHL",
        "address": "Poland",
        "city": []
    },
    {
        "name": "172942",
        "latitude": 50.326962,
        "longitude": 19.0462,
        "country": "PL",
        "iconUrl": "DHL.svg",
        "owner": "DHL",
        "address": "Poland",
        "city": []
    },
    {
        "name": "172943",
        "latitude": 50.2937516895,
        "longitude": 18.9422814708,
        "country": "PL",
        "iconUrl": "DHL.svg",
        "owner": "DHL",
        "address": "Poland",
        "city": []
    },
    {
        "name": "172944",
        "latitude": 52.24488415,
        "longitude": 21.10493685,
        "country": "PL",
        "iconUrl": "DHL.svg",
        "owner": "DHL",
        "address": "Poland",
        "city": []
    },
    {
        "name": "172945",
        "latitude": 53.119471736,
        "longitude": 17.98025117,
        "country": "PL",
        "iconUrl": "DHL.svg",
        "owner": "DHL",
        "address": "Poland",
        "city": []
    },
    {
        "name": "173083",
        "latitude": 52.3453204659,
        "longitude": 21.2295686283,
        "country": "PL",
        "iconUrl": "DHL.svg",
        "owner": "DHL",
        "address": "Poland",
        "city": []
    },
    {
        "name": "173084",
        "latitude": 51.7182994626,
        "longitude": 19.4897537704,
        "country": "PL",
        "iconUrl": "DHL.svg",
        "owner": "DHL",
        "address": "Poland",
        "city": []
    },
    {
        "name": "173085",
        "latitude": 52.2942654222,
        "longitude": 20.8055882404,
        "country": "PL",
        "iconUrl": "DHL.svg",
        "owner": "DHL",
        "address": "Poland",
        "city": []
    },
    {
        "name": "173086",
        "latitude": 51.7310549585,
        "longitude": 19.4828134406,
        "country": "PL",
        "iconUrl": "DHL.svg",
        "owner": "DHL",
        "address": "Poland",
        "city": []
    },
    {
        "name": "173087",
        "latitude": 53.436268,
        "longitude": 14.745997,
        "country": "PL",
        "iconUrl": "DHL.svg",
        "owner": "DHL",
        "address": "Poland",
        "city": []
    },
    {
        "name": "173088",
        "latitude": 53.105149685,
        "longitude": 18.0286893054,
        "country": "PL",
        "iconUrl": "DHL.svg",
        "owner": "DHL",
        "address": "Poland",
        "city": []
    },
    {
        "name": "173089",
        "latitude": 52.402169,
        "longitude": 20.930662,
        "country": "PL",
        "iconUrl": "DHL.svg",
        "owner": "DHL",
        "address": "Poland",
        "city": []
    },
    {
        "name": "173100",
        "latitude": 52.1623791216,
        "longitude": 20.9921645996,
        "country": "PL",
        "iconUrl": "DHL.svg",
        "owner": "DHL",
        "address": "Poland",
        "city": []
    },
    {
        "name": "173101",
        "latitude": 52.314971314,
        "longitude": 21.1598247477,
        "country": "PL",
        "iconUrl": "DHL.svg",
        "owner": "DHL",
        "address": "Poland",
        "city": []
    },
    {
        "name": "173102",
        "latitude": 51.7406664363,
        "longitude": 19.5000894606,
        "country": "PL",
        "iconUrl": "DHL.svg",
        "owner": "DHL",
        "address": "Poland",
        "city": []
    },
    {
        "name": "173103",
        "latitude": 51.2180700222,
        "longitude": 22.5477383177,
        "country": "PL",
        "iconUrl": "DHL.svg",
        "owner": "DHL",
        "address": "Poland",
        "city": []
    },
    {
        "name": "173104",
        "latitude": 52.3453264153,
        "longitude": 21.0541651603,
        "country": "PL",
        "iconUrl": "DHL.svg",
        "owner": "DHL",
        "address": "Poland",
        "city": []
    },
    {
        "name": "173105",
        "latitude": 50.2913114148,
        "longitude": 19.0149416664,
        "country": "PL",
        "iconUrl": "DHL.svg",
        "owner": "DHL",
        "address": "Poland",
        "city": []
    },
    {
        "name": "173106",
        "latitude": 50.143382,
        "longitude": 19.418526,
        "country": "PL",
        "iconUrl": "DHL.svg",
        "owner": "DHL",
        "address": "Poland",
        "city": []
    },
    {
        "name": "173107",
        "latitude": 51.866028881,
        "longitude": 19.381989113,
        "country": "PL",
        "iconUrl": "DHL.svg",
        "owner": "DHL",
        "address": "Poland",
        "city": []
    },
    {
        "name": "173108",
        "latitude": 51.6556847555,
        "longitude": 19.3747917877,
        "country": "PL",
        "iconUrl": "DHL.svg",
        "owner": "DHL",
        "address": "Poland",
        "city": []
    },
    {
        "name": "173223",
        "latitude": 51.7792932883,
        "longitude": 19.480013613,
        "country": "PL",
        "iconUrl": "DHL.svg",
        "owner": "DHL",
        "address": "Poland",
        "city": []
    },
    {
        "name": "173224",
        "latitude": 51.7579504819,
        "longitude": 19.4846750394,
        "country": "PL",
        "iconUrl": "DHL.svg",
        "owner": "DHL",
        "address": "Poland",
        "city": []
    },
    {
        "name": "173225",
        "latitude": 50.2810699368,
        "longitude": 18.6716366093,
        "country": "PL",
        "iconUrl": "DHL.svg",
        "owner": "DHL",
        "address": "Poland",
        "city": []
    },
    {
        "name": "173226",
        "latitude": 50.6655,
        "longitude": 17.95933,
        "country": "PL",
        "iconUrl": "DHL.svg",
        "owner": "DHL",
        "address": "Poland",
        "city": []
    },
    {
        "name": "173228",
        "latitude": 51.08593,
        "longitude": 17.01269,
        "country": "PL",
        "iconUrl": "DHL.svg",
        "owner": "DHL",
        "address": "Poland",
        "city": []
    },
    {
        "name": "173229",
        "latitude": 54.60285872,
        "longitude": 18.3567398,
        "country": "PL",
        "iconUrl": "DHL.svg",
        "owner": "DHL",
        "address": "Poland",
        "city": []
    },
    {
        "name": "173230",
        "latitude": 54.56424631,
        "longitude": 18.39088693,
        "country": "PL",
        "iconUrl": "DHL.svg",
        "owner": "DHL",
        "address": "Poland",
        "city": []
    },
    {
        "name": "174262",
        "latitude": 54.3280366117,
        "longitude": 18.6142764595,
        "country": "PL",
        "iconUrl": "DHL.svg",
        "owner": "DHL",
        "address": "Poland",
        "city": []
    },
    {
        "name": "174263",
        "latitude": 52.4008423396,
        "longitude": 20.9364919025,
        "country": "PL",
        "iconUrl": "DHL.svg",
        "owner": "DHL",
        "address": "Poland",
        "city": []
    },
    {
        "name": "174264",
        "latitude": 52.4168327568,
        "longitude": 20.7448418676,
        "country": "PL",
        "iconUrl": "DHL.svg",
        "owner": "DHL",
        "address": "Poland",
        "city": []
    },
    {
        "name": "174265",
        "latitude": 51.8571297,
        "longitude": 19.3971891,
        "country": "PL",
        "iconUrl": "DHL.svg",
        "owner": "DHL",
        "address": "Poland",
        "city": []
    },
    {
        "name": "174266",
        "latitude": 51.7473643,
        "longitude": 19.3843644,
        "country": "PL",
        "iconUrl": "DHL.svg",
        "owner": "DHL",
        "address": "Poland",
        "city": []
    },
    {
        "name": "174267",
        "latitude": 52.2522249259,
        "longitude": 21.3015432128,
        "country": "PL",
        "iconUrl": "DHL.svg",
        "owner": "DHL",
        "address": "Poland",
        "city": []
    },
    {
        "name": "174268",
        "latitude": 52.2704798917,
        "longitude": 20.967143771,
        "country": "PL",
        "iconUrl": "DHL.svg",
        "owner": "DHL",
        "address": "Poland",
        "city": []
    },
    {
        "name": "174269",
        "latitude": 53.1568849318,
        "longitude": 18.1499104989,
        "country": "PL",
        "iconUrl": "DHL.svg",
        "owner": "DHL",
        "address": "Poland",
        "city": []
    },
    {
        "name": "174270",
        "latitude": 50.3427699503,
        "longitude": 19.2290787437,
        "country": "PL",
        "iconUrl": "DHL.svg",
        "owner": "DHL",
        "address": "Poland",
        "city": []
    },
    {
        "name": "174271",
        "latitude": 50.209099,
        "longitude": 19.263233,
        "country": "PL",
        "iconUrl": "DHL.svg",
        "owner": "DHL",
        "address": "Poland",
        "city": []
    },
    {
        "name": "174272",
        "latitude": 51.2391892631,
        "longitude": 22.5203854115,
        "country": "PL",
        "iconUrl": "DHL.svg",
        "owner": "DHL",
        "address": "Poland",
        "city": []
    },
    {
        "name": "174273",
        "latitude": 50.0162993339,
        "longitude": 20.0010649447,
        "country": "PL",
        "iconUrl": "DHL.svg",
        "owner": "DHL",
        "address": "Poland",
        "city": []
    },
    {
        "name": "174274",
        "latitude": 52.153879,
        "longitude": 20.7981686,
        "country": "PL",
        "iconUrl": "DHL.svg",
        "owner": "DHL",
        "address": "Poland",
        "city": []
    },
    {
        "name": "174275",
        "latitude": 52.113572737,
        "longitude": 20.6443331195,
        "country": "PL",
        "iconUrl": "DHL.svg",
        "owner": "DHL",
        "address": "Poland",
        "city": []
    },
    {
        "name": "174276",
        "latitude": 50.049323,
        "longitude": 18.598,
        "country": "PL",
        "iconUrl": "DHL.svg",
        "owner": "DHL",
        "address": "Poland",
        "city": []
    },
    {
        "name": "174277",
        "latitude": 49.9922256935,
        "longitude": 19.945851649,
        "country": "PL",
        "iconUrl": "DHL.svg",
        "owner": "DHL",
        "address": "Poland",
        "city": []
    },
    {
        "name": "174278",
        "latitude": 53.5630150486,
        "longitude": 14.8332014073,
        "country": "PL",
        "iconUrl": "DHL.svg",
        "owner": "DHL",
        "address": "Poland",
        "city": []
    },
    {
        "name": "174279",
        "latitude": 50.1190489,
        "longitude": 19.9662098,
        "country": "PL",
        "iconUrl": "DHL.svg",
        "owner": "DHL",
        "address": "Poland",
        "city": []
    },
    {
        "name": "174280",
        "latitude": 51.764729299,
        "longitude": 19.4511294141,
        "country": "PL",
        "iconUrl": "DHL.svg",
        "owner": "DHL",
        "address": "Poland",
        "city": []
    },
    {
        "name": "179710",
        "latitude": 49.945992,
        "longitude": 18.5987,
        "country": "PL",
        "iconUrl": "DHL.svg",
        "owner": "DHL",
        "address": "Poland",
        "city": []
    },
    {
        "name": "179711",
        "latitude": 50.131843,
        "longitude": 19.413922,
        "country": "PL",
        "iconUrl": "DHL.svg",
        "owner": "DHL",
        "address": "Poland",
        "city": []
    },
    {
        "name": "179712",
        "latitude": 52.0680929142,
        "longitude": 21.0224961074,
        "country": "PL",
        "iconUrl": "DHL.svg",
        "owner": "DHL",
        "address": "Poland",
        "city": []
    },
    {
        "name": "174330",
        "latitude": 52.284870288,
        "longitude": 21.0262436376,
        "country": "PL",
        "iconUrl": "DHL.svg",
        "owner": "DHL",
        "address": "Poland",
        "city": []
    },
    {
        "name": "174331",
        "latitude": 51.6517533,
        "longitude": 19.3742076,
        "country": "PL",
        "iconUrl": "DHL.svg",
        "owner": "DHL",
        "address": "Poland",
        "city": []
    },
    {
        "name": "179713",
        "latitude": 51.24768,
        "longitude": 22.51059,
        "country": "PL",
        "iconUrl": "DHL.svg",
        "owner": "DHL",
        "address": "Poland",
        "city": []
    },
    {
        "name": "179714",
        "latitude": 50.0433548852,
        "longitude": 19.9223528784,
        "country": "PL",
        "iconUrl": "DHL.svg",
        "owner": "DHL",
        "address": "Poland",
        "city": []
    },
    {
        "name": "179715",
        "latitude": 50.03123,
        "longitude": 19.971414,
        "country": "PL",
        "iconUrl": "DHL.svg",
        "owner": "DHL",
        "address": "Poland",
        "city": []
    },
    {
        "name": "179716",
        "latitude": 52.2493408981,
        "longitude": 20.8465498559,
        "country": "PL",
        "iconUrl": "DHL.svg",
        "owner": "DHL",
        "address": "Poland",
        "city": []
    },
    {
        "name": "179717",
        "latitude": 52.3354786059,
        "longitude": 20.9620117945,
        "country": "PL",
        "iconUrl": "DHL.svg",
        "owner": "DHL",
        "address": "Poland",
        "city": []
    },
    {
        "name": "179718",
        "latitude": 52.1485561347,
        "longitude": 20.9412753484,
        "country": "PL",
        "iconUrl": "DHL.svg",
        "owner": "DHL",
        "address": "Poland",
        "city": []
    },
    {
        "name": "179812",
        "latitude": 50.3055258373,
        "longitude": 18.9381975349,
        "country": "PL",
        "iconUrl": "DHL.svg",
        "owner": "DHL",
        "address": "Poland",
        "city": []
    },
    {
        "name": "179813",
        "latitude": 52.375867,
        "longitude": 16.871996,
        "country": "PL",
        "iconUrl": "DHL.svg",
        "owner": "DHL",
        "address": "Poland",
        "city": []
    },
    {
        "name": "179719",
        "latitude": 51.2333,
        "longitude": 22.50453,
        "country": "PL",
        "iconUrl": "DHL.svg",
        "owner": "DHL",
        "address": "Poland",
        "city": []
    },
    {
        "name": "179720",
        "latitude": 50.261093,
        "longitude": 19.562738,
        "country": "PL",
        "iconUrl": "DHL.svg",
        "owner": "DHL",
        "address": "Poland",
        "city": []
    },
    {
        "name": "179721",
        "latitude": 50.2988869643,
        "longitude": 18.8267256099,
        "country": "PL",
        "iconUrl": "DHL.svg",
        "owner": "DHL",
        "address": "Poland",
        "city": []
    },
    {
        "name": "179722",
        "latitude": 50.082533,
        "longitude": 18.2019,
        "country": "PL",
        "iconUrl": "DHL.svg",
        "owner": "DHL",
        "address": "Poland",
        "city": []
    },
    {
        "name": "180080",
        "latitude": 52.3225584708,
        "longitude": 21.0735903996,
        "country": "PL",
        "iconUrl": "DHL.svg",
        "owner": "DHL",
        "address": "Poland",
        "city": []
    },
    {
        "name": "179814",
        "latitude": 53.130193,
        "longitude": 18.001148,
        "country": "PL",
        "iconUrl": "DHL.svg",
        "owner": "DHL",
        "address": "Poland",
        "city": []
    },
    {
        "name": "179815",
        "latitude": 50.0697482568,
        "longitude": 20.0122973733,
        "country": "PL",
        "iconUrl": "DHL.svg",
        "owner": "DHL",
        "address": "Poland",
        "city": []
    },
    {
        "name": "179816",
        "latitude": 52.3144058629,
        "longitude": 21.1481895854,
        "country": "PL",
        "iconUrl": "DHL.svg",
        "owner": "DHL",
        "address": "Poland",
        "city": []
    },
    {
        "name": "179817",
        "latitude": 52.0635983343,
        "longitude": 20.4458498853,
        "country": "PL",
        "iconUrl": "DHL.svg",
        "owner": "DHL",
        "address": "Poland",
        "city": []
    },
    {
        "name": "179818",
        "latitude": 52.4292601,
        "longitude": 16.9366147,
        "country": "PL",
        "iconUrl": "DHL.svg",
        "owner": "DHL",
        "address": "Poland",
        "city": []
    },
    {
        "name": "180081",
        "latitude": 50.018768753,
        "longitude": 22.0065341105,
        "country": "PL",
        "iconUrl": "DHL.svg",
        "owner": "DHL",
        "address": "Poland",
        "city": []
    },
    {
        "name": "180082",
        "latitude": 50.03864,
        "longitude": 22.038048,
        "country": "PL",
        "iconUrl": "DHL.svg",
        "owner": "DHL",
        "address": "Poland",
        "city": []
    },
    {
        "name": "180083",
        "latitude": 50.2906482194,
        "longitude": 18.7324865927,
        "country": "PL",
        "iconUrl": "DHL.svg",
        "owner": "DHL",
        "address": "Poland",
        "city": []
    },
    {
        "name": "180084",
        "latitude": 53.128682,
        "longitude": 18.007001,
        "country": "PL",
        "iconUrl": "DHL.svg",
        "owner": "DHL",
        "address": "Poland",
        "city": []
    },
    {
        "name": "180085",
        "latitude": 52.2167201648,
        "longitude": 21.2293032627,
        "country": "PL",
        "iconUrl": "DHL.svg",
        "owner": "DHL",
        "address": "Poland",
        "city": []
    },
    {
        "name": "180086",
        "latitude": 50.2617763631,
        "longitude": 19.0242138429,
        "country": "PL",
        "iconUrl": "DHL.svg",
        "owner": "DHL",
        "address": "Poland",
        "city": []
    },
    {
        "name": "180087",
        "latitude": 52.245633509,
        "longitude": 21.3096066064,
        "country": "PL",
        "iconUrl": "DHL.svg",
        "owner": "DHL",
        "address": "Poland",
        "city": []
    },
    {
        "name": "180088",
        "latitude": 50.8954139802,
        "longitude": 20.6644461648,
        "country": "PL",
        "iconUrl": "DHL.svg",
        "owner": "DHL",
        "address": "Poland",
        "city": []
    },
    {
        "name": "180089",
        "latitude": 53.7970782655,
        "longitude": 20.4948070311,
        "country": "PL",
        "iconUrl": "DHL.svg",
        "owner": "DHL",
        "address": "Poland",
        "city": []
    },
    {
        "name": "180090",
        "latitude": 53.7685861087,
        "longitude": 20.4985888911,
        "country": "PL",
        "iconUrl": "DHL.svg",
        "owner": "DHL",
        "address": "Poland",
        "city": []
    },
    {
        "name": "180091",
        "latitude": 52.5944107096,
        "longitude": 21.4554659156,
        "country": "PL",
        "iconUrl": "DHL.svg",
        "owner": "DHL",
        "address": "Poland",
        "city": []
    },
    {
        "name": "180092",
        "latitude": 50.8973302873,
        "longitude": 20.6703691668,
        "country": "PL",
        "iconUrl": "DHL.svg",
        "owner": "DHL",
        "address": "Poland",
        "city": []
    },
    {
        "name": "180569",
        "latitude": 51.23391134,
        "longitude": 22.49539459,
        "country": "PL",
        "iconUrl": "DHL.svg",
        "owner": "DHL",
        "address": "Poland",
        "city": []
    },
    {
        "name": "180570",
        "latitude": 51.7948594047,
        "longitude": 19.4540790844,
        "country": "PL",
        "iconUrl": "DHL.svg",
        "owner": "DHL",
        "address": "Poland",
        "city": []
    },
    {
        "name": "180571",
        "latitude": 50.13855783,
        "longitude": 18.6319402,
        "country": "PL",
        "iconUrl": "DHL.svg",
        "owner": "DHL",
        "address": "Poland",
        "city": []
    },
    {
        "name": "180238",
        "latitude": 50.8787102419,
        "longitude": 20.6274119806,
        "country": "PL",
        "iconUrl": "DHL.svg",
        "owner": "DHL",
        "address": "Poland",
        "city": []
    },
    {
        "name": "180239",
        "latitude": 53.9841953456,
        "longitude": 20.3892228932,
        "country": "PL",
        "iconUrl": "DHL.svg",
        "owner": "DHL",
        "address": "Poland",
        "city": []
    },
    {
        "name": "180240",
        "latitude": 53.9807763058,
        "longitude": 20.3946550404,
        "country": "PL",
        "iconUrl": "DHL.svg",
        "owner": "DHL",
        "address": "Poland",
        "city": []
    },
    {
        "name": "180241",
        "latitude": 52.2960490516,
        "longitude": 21.0458931547,
        "country": "PL",
        "iconUrl": "DHL.svg",
        "owner": "DHL",
        "address": "Poland",
        "city": []
    },
    {
        "name": "180242",
        "latitude": 50.0915512331,
        "longitude": 18.2260353791,
        "country": "PL",
        "iconUrl": "DHL.svg",
        "owner": "DHL",
        "address": "Poland",
        "city": []
    },
    {
        "name": "180243",
        "latitude": 50.027189,
        "longitude": 22.029907,
        "country": "PL",
        "iconUrl": "DHL.svg",
        "owner": "DHL",
        "address": "Poland",
        "city": []
    },
    {
        "name": "180244",
        "latitude": 50.0848048366,
        "longitude": 20.0095765355,
        "country": "PL",
        "iconUrl": "DHL.svg",
        "owner": "DHL",
        "address": "Poland",
        "city": []
    },
    {
        "name": "180245",
        "latitude": 50.2738088609,
        "longitude": 19.0558188841,
        "country": "PL",
        "iconUrl": "DHL.svg",
        "owner": "DHL",
        "address": "Poland",
        "city": []
    },
    {
        "name": "180246",
        "latitude": 51.250103119,
        "longitude": 22.5762276982,
        "country": "PL",
        "iconUrl": "DHL.svg",
        "owner": "DHL",
        "address": "Poland",
        "city": []
    },
    {
        "name": "180247",
        "latitude": 50.045783,
        "longitude": 21.980443,
        "country": "PL",
        "iconUrl": "DHL.svg",
        "owner": "DHL",
        "address": "Poland",
        "city": []
    },
    {
        "name": "180248",
        "latitude": 51.2099230651,
        "longitude": 22.572017,
        "country": "PL",
        "iconUrl": "DHL.svg",
        "owner": "DHL",
        "address": "Poland",
        "city": []
    },
    {
        "name": "180372",
        "latitude": 53.1385985309,
        "longitude": 17.9527321074,
        "country": "PL",
        "iconUrl": "DHL.svg",
        "owner": "DHL",
        "address": "Poland",
        "city": []
    },
    {
        "name": "180373",
        "latitude": 52.2654306123,
        "longitude": 20.9688824708,
        "country": "PL",
        "iconUrl": "DHL.svg",
        "owner": "DHL",
        "address": "Poland",
        "city": []
    },
    {
        "name": "180374",
        "latitude": 53.0385747979,
        "longitude": 18.7011951293,
        "country": "PL",
        "iconUrl": "DHL.svg",
        "owner": "DHL",
        "address": "Poland",
        "city": []
    },
    {
        "name": "180375",
        "latitude": 52.1719042335,
        "longitude": 21.163244284,
        "country": "PL",
        "iconUrl": "DHL.svg",
        "owner": "DHL",
        "address": "Poland",
        "city": []
    },
    {
        "name": "180376",
        "latitude": 50.3185787958,
        "longitude": 19.1238727535,
        "country": "PL",
        "iconUrl": "DHL.svg",
        "owner": "DHL",
        "address": "Poland",
        "city": []
    },
    {
        "name": "180377",
        "latitude": 51.7987999987,
        "longitude": 19.4549569998,
        "country": "PL",
        "iconUrl": "DHL.svg",
        "owner": "DHL",
        "address": "Poland",
        "city": []
    },
    {
        "name": "180378",
        "latitude": 50.095758,
        "longitude": 18.214921,
        "country": "PL",
        "iconUrl": "DHL.svg",
        "owner": "DHL",
        "address": "Poland",
        "city": []
    },
    {
        "name": "180430",
        "latitude": 50.3294504865,
        "longitude": 19.2248194548,
        "country": "PL",
        "iconUrl": "DHL.svg",
        "owner": "DHL",
        "address": "Poland",
        "city": []
    },
    {
        "name": "180431",
        "latitude": 52.10418252,
        "longitude": 20.62487853,
        "country": "PL",
        "iconUrl": "DHL.svg",
        "owner": "DHL",
        "address": "Poland",
        "city": []
    },
    {
        "name": "180432",
        "latitude": 51.7954955982,
        "longitude": 19.4483593114,
        "country": "PL",
        "iconUrl": "DHL.svg",
        "owner": "DHL",
        "address": "Poland",
        "city": []
    },
    {
        "name": "180433",
        "latitude": 50.0301452108,
        "longitude": 21.9993820491,
        "country": "PL",
        "iconUrl": "DHL.svg",
        "owner": "DHL",
        "address": "Poland",
        "city": []
    },
    {
        "name": "180434",
        "latitude": 50.300221,
        "longitude": 18.645146,
        "country": "PL",
        "iconUrl": "DHL.svg",
        "owner": "DHL",
        "address": "Poland",
        "city": []
    },
    {
        "name": "180435",
        "latitude": 50.043455,
        "longitude": 21.986879,
        "country": "PL",
        "iconUrl": "DHL.svg",
        "owner": "DHL",
        "address": "Poland",
        "city": []
    },
    {
        "name": "180436",
        "latitude": 50.829713,
        "longitude": 19.072967,
        "country": "PL",
        "iconUrl": "DHL.svg",
        "owner": "DHL",
        "address": "Poland",
        "city": []
    },
    {
        "name": "180437",
        "latitude": 50.0894756111,
        "longitude": 18.2084226871,
        "country": "PL",
        "iconUrl": "DHL.svg",
        "owner": "DHL",
        "address": "Poland",
        "city": []
    },
    {
        "name": "180438",
        "latitude": 54.25681,
        "longitude": 18.65211,
        "country": "PL",
        "iconUrl": "DHL.svg",
        "owner": "DHL",
        "address": "Poland",
        "city": []
    },
    {
        "name": "180439",
        "latitude": 52.15439,
        "longitude": 21.04888,
        "country": "PL",
        "iconUrl": "DHL.svg",
        "owner": "DHL",
        "address": "Poland",
        "city": []
    },
    {
        "name": "180440",
        "latitude": 50.09567,
        "longitude": 18.53597,
        "country": "PL",
        "iconUrl": "DHL.svg",
        "owner": "DHL",
        "address": "Poland",
        "city": []
    },
    {
        "name": "180441",
        "latitude": 54.40685,
        "longitude": 18.63903,
        "country": "PL",
        "iconUrl": "DHL.svg",
        "owner": "DHL",
        "address": "Poland",
        "city": []
    },
    {
        "name": "180442",
        "latitude": 52.5508971479,
        "longitude": 19.675387946,
        "country": "PL",
        "iconUrl": "DHL.svg",
        "owner": "DHL",
        "address": "Poland",
        "city": []
    },
    {
        "name": "180443",
        "latitude": 51.66003,
        "longitude": 19.322527,
        "country": "PL",
        "iconUrl": "DHL.svg",
        "owner": "DHL",
        "address": "Poland",
        "city": []
    },
    {
        "name": "180743",
        "latitude": 52.15367064,
        "longitude": 20.92673737,
        "country": "PL",
        "iconUrl": "DHL.svg",
        "owner": "DHL",
        "address": "Poland",
        "city": []
    },
    {
        "name": "180744",
        "latitude": 51.740846,
        "longitude": 19.611731,
        "country": "PL",
        "iconUrl": "DHL.svg",
        "owner": "DHL",
        "address": "Poland",
        "city": []
    },
    {
        "name": "180745",
        "latitude": 52.13773223,
        "longitude": 21.23608668,
        "country": "PL",
        "iconUrl": "DHL.svg",
        "owner": "DHL",
        "address": "Poland",
        "city": []
    },
    {
        "name": "180572",
        "latitude": 51.2999983944,
        "longitude": 16.9224349118,
        "country": "PL",
        "iconUrl": "DHL.svg",
        "owner": "DHL",
        "address": "Poland",
        "city": []
    },
    {
        "name": "180573",
        "latitude": 51.2264478936,
        "longitude": 22.5910575509,
        "country": "PL",
        "iconUrl": "DHL.svg",
        "owner": "DHL",
        "address": "Poland",
        "city": []
    },
    {
        "name": "180574",
        "latitude": 50.02302,
        "longitude": 19.98606,
        "country": "PL",
        "iconUrl": "DHL.svg",
        "owner": "DHL",
        "address": "Poland",
        "city": []
    },
    {
        "name": "180575",
        "latitude": 50.3267419104,
        "longitude": 19.1598962012,
        "country": "PL",
        "iconUrl": "DHL.svg",
        "owner": "DHL",
        "address": "Poland",
        "city": []
    },
    {
        "name": "180576",
        "latitude": 50.224393,
        "longitude": 19.063442,
        "country": "PL",
        "iconUrl": "DHL.svg",
        "owner": "DHL",
        "address": "Poland",
        "city": []
    },
    {
        "name": "180746",
        "latitude": 50.400924,
        "longitude": 18.623523,
        "country": "PL",
        "iconUrl": "DHL.svg",
        "owner": "DHL",
        "address": "Poland",
        "city": []
    },
    {
        "name": "180747",
        "latitude": 52.55473,
        "longitude": 19.70078,
        "country": "PL",
        "iconUrl": "DHL.svg",
        "owner": "DHL",
        "address": "Poland",
        "city": []
    },
    {
        "name": "180748",
        "latitude": 50.139914,
        "longitude": 18.622943,
        "country": "PL",
        "iconUrl": "DHL.svg",
        "owner": "DHL",
        "address": "Poland",
        "city": []
    },
    {
        "name": "180749",
        "latitude": 50.0801859517,
        "longitude": 19.9708348883,
        "country": "PL",
        "iconUrl": "DHL.svg",
        "owner": "DHL",
        "address": "Poland",
        "city": []
    },
    {
        "name": "180750",
        "latitude": 52.40197,
        "longitude": 20.94804,
        "country": "PL",
        "iconUrl": "DHL.svg",
        "owner": "DHL",
        "address": "Poland",
        "city": []
    },
    {
        "name": "180751",
        "latitude": 52.36245,
        "longitude": 21.28168,
        "country": "PL",
        "iconUrl": "DHL.svg",
        "owner": "DHL",
        "address": "Poland",
        "city": []
    },
    {
        "name": "180752",
        "latitude": 51.24375,
        "longitude": 22.5971,
        "country": "PL",
        "iconUrl": "DHL.svg",
        "owner": "DHL",
        "address": "Poland",
        "city": []
    },
    {
        "name": "180753",
        "latitude": 51.24997,
        "longitude": 22.51233,
        "country": "PL",
        "iconUrl": "DHL.svg",
        "owner": "DHL",
        "address": "Poland",
        "city": []
    },
    {
        "name": "180754",
        "latitude": 50.2703998598,
        "longitude": 19.0210022955,
        "country": "PL",
        "iconUrl": "DHL.svg",
        "owner": "DHL",
        "address": "Poland",
        "city": []
    },
    {
        "name": "180755",
        "latitude": 51.7613634374,
        "longitude": 19.5049079697,
        "country": "PL",
        "iconUrl": "DHL.svg",
        "owner": "DHL",
        "address": "Poland",
        "city": []
    },
    {
        "name": "180756",
        "latitude": 50.010624,
        "longitude": 22.024125,
        "country": "PL",
        "iconUrl": "DHL.svg",
        "owner": "DHL",
        "address": "Poland",
        "city": []
    },
    {
        "name": "180757",
        "latitude": 52.1576394865,
        "longitude": 20.7914501765,
        "country": "PL",
        "iconUrl": "DHL.svg",
        "owner": "DHL",
        "address": "Poland",
        "city": []
    },
    {
        "name": "180758",
        "latitude": 52.34567,
        "longitude": 21.24255,
        "country": "PL",
        "iconUrl": "DHL.svg",
        "owner": "DHL",
        "address": "Poland",
        "city": []
    },
    {
        "name": "180759",
        "latitude": 53.143,
        "longitude": 23.11493,
        "country": "PL",
        "iconUrl": "DHL.svg",
        "owner": "DHL",
        "address": "Poland",
        "city": []
    },
    {
        "name": "180760",
        "latitude": 53.12622,
        "longitude": 23.18507,
        "country": "PL",
        "iconUrl": "DHL.svg",
        "owner": "DHL",
        "address": "Poland",
        "city": []
    },
    {
        "name": "180761",
        "latitude": 52.29214,
        "longitude": 21.11733,
        "country": "PL",
        "iconUrl": "DHL.svg",
        "owner": "DHL",
        "address": "Poland",
        "city": []
    },
    {
        "name": "180908",
        "latitude": 50.660705,
        "longitude": 17.943632,
        "country": "PL",
        "iconUrl": "DHL.svg",
        "owner": "DHL",
        "address": "Poland",
        "city": []
    },
    {
        "name": "180909",
        "latitude": 50.655414,
        "longitude": 17.952994,
        "country": "PL",
        "iconUrl": "DHL.svg",
        "owner": "DHL",
        "address": "Poland",
        "city": []
    },
    {
        "name": "180910",
        "latitude": 49.9492087518,
        "longitude": 18.6024805384,
        "country": "PL",
        "iconUrl": "DHL.svg",
        "owner": "DHL",
        "address": "Poland",
        "city": []
    },
    {
        "name": "180911",
        "latitude": 50.1523346365,
        "longitude": 18.8423435289,
        "country": "PL",
        "iconUrl": "DHL.svg",
        "owner": "DHL",
        "address": "Poland",
        "city": []
    },
    {
        "name": "180762",
        "latitude": 52.22252282,
        "longitude": 21.23055087,
        "country": "PL",
        "iconUrl": "DHL.svg",
        "owner": "DHL",
        "address": "Poland",
        "city": []
    },
    {
        "name": "181261",
        "latitude": 51.1463732339,
        "longitude": 17.1348535843,
        "country": "PL",
        "iconUrl": "DHL.svg",
        "owner": "DHL",
        "address": "Poland",
        "city": []
    },
    {
        "name": "181262",
        "latitude": 51.7976326811,
        "longitude": 19.4490676123,
        "country": "PL",
        "iconUrl": "DHL.svg",
        "owner": "DHL",
        "address": "Poland",
        "city": []
    },
    {
        "name": "181263",
        "latitude": 52.15063,
        "longitude": 21.01517,
        "country": "PL",
        "iconUrl": "DHL.svg",
        "owner": "DHL",
        "address": "Poland",
        "city": []
    },
    {
        "name": "181264",
        "latitude": 50.2607930205,
        "longitude": 19.0198100552,
        "country": "PL",
        "iconUrl": "DHL.svg",
        "owner": "DHL",
        "address": "Poland",
        "city": []
    },
    {
        "name": "180912",
        "latitude": 51.659071,
        "longitude": 19.333832,
        "country": "PL",
        "iconUrl": "DHL.svg",
        "owner": "DHL",
        "address": "Poland",
        "city": []
    },
    {
        "name": "180913",
        "latitude": 52.248554,
        "longitude": 21.276873,
        "country": "PL",
        "iconUrl": "DHL.svg",
        "owner": "DHL",
        "address": "Poland",
        "city": []
    },
    {
        "name": "180914",
        "latitude": 53.1074775015,
        "longitude": 23.1154281217,
        "country": "PL",
        "iconUrl": "DHL.svg",
        "owner": "DHL",
        "address": "Poland",
        "city": []
    },
    {
        "name": "180915",
        "latitude": 50.0472253931,
        "longitude": 22.0071093489,
        "country": "PL",
        "iconUrl": "DHL.svg",
        "owner": "DHL",
        "address": "Poland",
        "city": []
    },
    {
        "name": "180916",
        "latitude": 51.9567355989,
        "longitude": 15.4937629067,
        "country": "PL",
        "iconUrl": "DHL.svg",
        "owner": "DHL",
        "address": "Poland",
        "city": []
    },
    {
        "name": "180917",
        "latitude": 50.0285112019,
        "longitude": 21.9815218406,
        "country": "PL",
        "iconUrl": "DHL.svg",
        "owner": "DHL",
        "address": "Poland",
        "city": []
    },
    {
        "name": "180907",
        "latitude": 52.211264,
        "longitude": 20.788037,
        "country": "PL",
        "iconUrl": "DHL.svg",
        "owner": "DHL",
        "address": "Poland",
        "city": []
    },
    {
        "name": "180918",
        "latitude": 52.1943648235,
        "longitude": 20.883532162,
        "country": "PL",
        "iconUrl": "DHL.svg",
        "owner": "DHL",
        "address": "Poland",
        "city": []
    },
    {
        "name": "180919",
        "latitude": 52.33987,
        "longitude": 21.23419,
        "country": "PL",
        "iconUrl": "DHL.svg",
        "owner": "DHL",
        "address": "Poland",
        "city": []
    },
    {
        "name": "180920",
        "latitude": 52.3170022014,
        "longitude": 21.0011971925,
        "country": "PL",
        "iconUrl": "DHL.svg",
        "owner": "DHL",
        "address": "Poland",
        "city": []
    },
    {
        "name": "180921",
        "latitude": 50.056265,
        "longitude": 21.973234,
        "country": "PL",
        "iconUrl": "DHL.svg",
        "owner": "DHL",
        "address": "Poland",
        "city": []
    },
    {
        "name": "180922",
        "latitude": 50.2753427778,
        "longitude": 18.6954597961,
        "country": "PL",
        "iconUrl": "DHL.svg",
        "owner": "DHL",
        "address": "Poland",
        "city": []
    },
    {
        "name": "180923",
        "latitude": 50.2812016013,
        "longitude": 18.8625834317,
        "country": "PL",
        "iconUrl": "DHL.svg",
        "owner": "DHL",
        "address": "Poland",
        "city": []
    },
    {
        "name": "180924",
        "latitude": 51.664179,
        "longitude": 19.344396,
        "country": "PL",
        "iconUrl": "DHL.svg",
        "owner": "DHL",
        "address": "Poland",
        "city": []
    },
    {
        "name": "180925",
        "latitude": 52.2028745265,
        "longitude": 21.036942573,
        "country": "PL",
        "iconUrl": "DHL.svg",
        "owner": "DHL",
        "address": "Poland",
        "city": []
    },
    {
        "name": "180926",
        "latitude": 52.3291171902,
        "longitude": 20.9043551563,
        "country": "PL",
        "iconUrl": "DHL.svg",
        "owner": "DHL",
        "address": "Poland",
        "city": []
    },
    {
        "name": "180927",
        "latitude": 53.1290539861,
        "longitude": 17.9798459656,
        "country": "PL",
        "iconUrl": "DHL.svg",
        "owner": "DHL",
        "address": "Poland",
        "city": []
    },
    {
        "name": "180928",
        "latitude": 50.0542719299,
        "longitude": 18.5974370293,
        "country": "PL",
        "iconUrl": "DHL.svg",
        "owner": "DHL",
        "address": "Poland",
        "city": []
    },
    {
        "name": "180929",
        "latitude": 50.2171895748,
        "longitude": 19.1568647961,
        "country": "PL",
        "iconUrl": "DHL.svg",
        "owner": "DHL",
        "address": "Poland",
        "city": []
    },
    {
        "name": "180930",
        "latitude": 52.2830508,
        "longitude": 20.9721557,
        "country": "PL",
        "iconUrl": "DHL.svg",
        "owner": "DHL",
        "address": "Poland",
        "city": []
    },
    {
        "name": "180931",
        "latitude": 53.5436386561,
        "longitude": 14.5603707722,
        "country": "PL",
        "iconUrl": "DHL.svg",
        "owner": "DHL",
        "address": "Poland",
        "city": []
    },
    {
        "name": "180932",
        "latitude": 52.3323080582,
        "longitude": 20.9482356397,
        "country": "PL",
        "iconUrl": "DHL.svg",
        "owner": "DHL",
        "address": "Poland",
        "city": []
    },
    {
        "name": "180933",
        "latitude": 51.753273,
        "longitude": 19.459753,
        "country": "PL",
        "iconUrl": "DHL.svg",
        "owner": "DHL",
        "address": "Poland",
        "city": []
    },
    {
        "name": "180934",
        "latitude": 50.0498702706,
        "longitude": 18.4743986792,
        "country": "PL",
        "iconUrl": "DHL.svg",
        "owner": "DHL",
        "address": "Poland",
        "city": []
    },
    {
        "name": "180935",
        "latitude": 50.3067409447,
        "longitude": 19.0256922121,
        "country": "PL",
        "iconUrl": "DHL.svg",
        "owner": "DHL",
        "address": "Poland",
        "city": []
    },
    {
        "name": "180936",
        "latitude": 50.02218,
        "longitude": 22.017685,
        "country": "PL",
        "iconUrl": "DHL.svg",
        "owner": "DHL",
        "address": "Poland",
        "city": []
    },
    {
        "name": "180937",
        "latitude": 52.2274881283,
        "longitude": 21.0087033834,
        "country": "PL",
        "iconUrl": "DHL.svg",
        "owner": "DHL",
        "address": "Poland",
        "city": []
    },
    {
        "name": "180938",
        "latitude": 53.1134545569,
        "longitude": 17.9814030694,
        "country": "PL",
        "iconUrl": "DHL.svg",
        "owner": "DHL",
        "address": "Poland",
        "city": []
    },
    {
        "name": "180939",
        "latitude": 53.1675438287,
        "longitude": 18.1578230052,
        "country": "PL",
        "iconUrl": "DHL.svg",
        "owner": "DHL",
        "address": "Poland",
        "city": []
    },
    {
        "name": "180905",
        "latitude": 52.5364023562,
        "longitude": 19.7340045212,
        "country": "PL",
        "iconUrl": "DHL.svg",
        "owner": "DHL",
        "address": "Poland",
        "city": []
    },
    {
        "name": "180906",
        "latitude": 52.418221699,
        "longitude": 20.9266544768,
        "country": "PL",
        "iconUrl": "DHL.svg",
        "owner": "DHL",
        "address": "Poland",
        "city": []
    },
    {
        "name": "181454",
        "latitude": 52.1156246129,
        "longitude": 20.6239982955,
        "country": "PL",
        "iconUrl": "DHL.svg",
        "owner": "DHL",
        "address": "Poland",
        "city": []
    },
    {
        "name": "181455",
        "latitude": 52.2063612673,
        "longitude": 20.916621828,
        "country": "PL",
        "iconUrl": "DHL.svg",
        "owner": "DHL",
        "address": "Poland",
        "city": []
    },
    {
        "name": "181456",
        "latitude": 54.3577873086,
        "longitude": 18.5950440845,
        "country": "PL",
        "iconUrl": "DHL.svg",
        "owner": "DHL",
        "address": "Poland",
        "city": []
    },
    {
        "name": "181457",
        "latitude": 50.0846411626,
        "longitude": 20.0281808347,
        "country": "PL",
        "iconUrl": "DHL.svg",
        "owner": "DHL",
        "address": "Poland",
        "city": []
    },
    {
        "name": "181409",
        "latitude": 50.089250794,
        "longitude": 19.9802733938,
        "country": "PL",
        "iconUrl": "DHL.svg",
        "owner": "DHL",
        "address": "Poland",
        "city": []
    },
    {
        "name": "181410",
        "latitude": 50.0713794221,
        "longitude": 19.9642354172,
        "country": "PL",
        "iconUrl": "DHL.svg",
        "owner": "DHL",
        "address": "Poland",
        "city": []
    },
    {
        "name": "181411",
        "latitude": 52.387043,
        "longitude": 16.966255,
        "country": "PL",
        "iconUrl": "DHL.svg",
        "owner": "DHL",
        "address": "Poland",
        "city": []
    },
    {
        "name": "181667",
        "latitude": 53.0170919417,
        "longitude": 18.6185311984,
        "country": "PL",
        "iconUrl": "DHL.svg",
        "owner": "DHL",
        "address": "Poland",
        "city": []
    },
    {
        "name": "181668",
        "latitude": 50.2064880332,
        "longitude": 19.2722460171,
        "country": "PL",
        "iconUrl": "DHL.svg",
        "owner": "DHL",
        "address": "Poland",
        "city": []
    },
    {
        "name": "181458",
        "latitude": 50.0876108255,
        "longitude": 20.0212159003,
        "country": "PL",
        "iconUrl": "DHL.svg",
        "owner": "DHL",
        "address": "Poland",
        "city": []
    },
    {
        "name": "181459",
        "latitude": 52.2879179,
        "longitude": 21.0693949,
        "country": "PL",
        "iconUrl": "DHL.svg",
        "owner": "DHL",
        "address": "Poland",
        "city": []
    },
    {
        "name": "181460",
        "latitude": 50.0294218,
        "longitude": 22.0200321,
        "country": "PL",
        "iconUrl": "DHL.svg",
        "owner": "DHL",
        "address": "Poland",
        "city": []
    },
    {
        "name": "181461",
        "latitude": 50.3496015045,
        "longitude": 18.9154708869,
        "country": "PL",
        "iconUrl": "DHL.svg",
        "owner": "DHL",
        "address": "Poland",
        "city": []
    },
    {
        "name": "181462",
        "latitude": 54.3659961,
        "longitude": 18.6274856,
        "country": "PL",
        "iconUrl": "DHL.svg",
        "owner": "DHL",
        "address": "Poland",
        "city": []
    },
    {
        "name": "181463",
        "latitude": 52.2678446755,
        "longitude": 20.9626571154,
        "country": "PL",
        "iconUrl": "DHL.svg",
        "owner": "DHL",
        "address": "Poland",
        "city": []
    },
    {
        "name": "181464",
        "latitude": 50.1318353551,
        "longitude": 18.9644893954,
        "country": "PL",
        "iconUrl": "DHL.svg",
        "owner": "DHL",
        "address": "Poland",
        "city": []
    },
    {
        "name": "181465",
        "latitude": 54.3507864616,
        "longitude": 18.5117933305,
        "country": "PL",
        "iconUrl": "DHL.svg",
        "owner": "DHL",
        "address": "Poland",
        "city": []
    },
    {
        "name": "181466",
        "latitude": 52.2630025086,
        "longitude": 20.9715346369,
        "country": "PL",
        "iconUrl": "DHL.svg",
        "owner": "DHL",
        "address": "Poland",
        "city": []
    },
    {
        "name": "181467",
        "latitude": 52.228129116,
        "longitude": 20.9133645618,
        "country": "PL",
        "iconUrl": "DHL.svg",
        "owner": "DHL",
        "address": "Poland",
        "city": []
    },
    {
        "name": "181468",
        "latitude": 54.5662238346,
        "longitude": 18.4870351375,
        "country": "PL",
        "iconUrl": "DHL.svg",
        "owner": "DHL",
        "address": "Poland",
        "city": []
    },
    {
        "name": "181469",
        "latitude": 54.3300657732,
        "longitude": 18.6057038951,
        "country": "PL",
        "iconUrl": "DHL.svg",
        "owner": "DHL",
        "address": "Poland",
        "city": []
    },
    {
        "name": "181470",
        "latitude": 50.0717199413,
        "longitude": 18.5468051262,
        "country": "PL",
        "iconUrl": "DHL.svg",
        "owner": "DHL",
        "address": "Poland",
        "city": []
    },
    {
        "name": "181471",
        "latitude": 50.0724884039,
        "longitude": 18.5203817407,
        "country": "PL",
        "iconUrl": "DHL.svg",
        "owner": "DHL",
        "address": "Poland",
        "city": []
    },
    {
        "name": "183196",
        "latitude": 52.217064443,
        "longitude": 21.0168715592,
        "country": "PL",
        "iconUrl": "DHL.svg",
        "owner": "DHL",
        "address": "Poland",
        "city": []
    },
    {
        "name": "181669",
        "latitude": 52.3220794107,
        "longitude": 20.9722692278,
        "country": "PL",
        "iconUrl": "DHL.svg",
        "owner": "DHL",
        "address": "Poland",
        "city": []
    },
    {
        "name": "181670",
        "latitude": 53.0370511623,
        "longitude": 18.6940414227,
        "country": "PL",
        "iconUrl": "DHL.svg",
        "owner": "DHL",
        "address": "Poland",
        "city": []
    },
    {
        "name": "181671",
        "latitude": 53.021403792,
        "longitude": 18.6186302983,
        "country": "PL",
        "iconUrl": "DHL.svg",
        "owner": "DHL",
        "address": "Poland",
        "city": []
    },
    {
        "name": "181672",
        "latitude": 50.6783932138,
        "longitude": 17.8906609238,
        "country": "PL",
        "iconUrl": "DHL.svg",
        "owner": "DHL",
        "address": "Poland",
        "city": []
    },
    {
        "name": "181673",
        "latitude": 50.0879724333,
        "longitude": 20.027119631,
        "country": "PL",
        "iconUrl": "DHL.svg",
        "owner": "DHL",
        "address": "Poland",
        "city": []
    },
    {
        "name": "183197",
        "latitude": 52.224848191,
        "longitude": 20.2419555424,
        "country": "PL",
        "iconUrl": "DHL.svg",
        "owner": "DHL",
        "address": "Poland",
        "city": []
    },
    {
        "name": "183198",
        "latitude": 54.5674962352,
        "longitude": 18.4090251454,
        "country": "PL",
        "iconUrl": "DHL.svg",
        "owner": "DHL",
        "address": "Poland",
        "city": []
    },
    {
        "name": "183199",
        "latitude": 50.32264036,
        "longitude": 19.13050271,
        "country": "PL",
        "iconUrl": "DHL.svg",
        "owner": "DHL",
        "address": "Poland",
        "city": []
    },
    {
        "name": "183200",
        "latitude": 54.5486042603,
        "longitude": 18.4624419522,
        "country": "PL",
        "iconUrl": "DHL.svg",
        "owner": "DHL",
        "address": "Poland",
        "city": []
    },
    {
        "name": "183201",
        "latitude": 52.2328657462,
        "longitude": 20.2424526223,
        "country": "PL",
        "iconUrl": "DHL.svg",
        "owner": "DHL",
        "address": "Poland",
        "city": []
    },
    {
        "name": "183202",
        "latitude": 52.2168781788,
        "longitude": 20.2299825138,
        "country": "PL",
        "iconUrl": "DHL.svg",
        "owner": "DHL",
        "address": "Poland",
        "city": []
    },
    {
        "name": "183203",
        "latitude": 52.1844248535,
        "longitude": 21.010401416,
        "country": "PL",
        "iconUrl": "DHL.svg",
        "owner": "DHL",
        "address": "Poland",
        "city": []
    },
    {
        "name": "183204",
        "latitude": 54.52922439,
        "longitude": 18.4993516043,
        "country": "PL",
        "iconUrl": "DHL.svg",
        "owner": "DHL",
        "address": "Poland",
        "city": []
    },
    {
        "name": "183205",
        "latitude": 50.6073890852,
        "longitude": 17.9756793154,
        "country": "PL",
        "iconUrl": "DHL.svg",
        "owner": "DHL",
        "address": "Poland",
        "city": []
    },
    {
        "name": "183206",
        "latitude": 52.251878,
        "longitude": 21.2241412,
        "country": "PL",
        "iconUrl": "DHL.svg",
        "owner": "DHL",
        "address": "Poland",
        "city": []
    },
    {
        "name": "183207",
        "latitude": 52.597615358,
        "longitude": 21.4303323781,
        "country": "PL",
        "iconUrl": "DHL.svg",
        "owner": "DHL",
        "address": "Poland",
        "city": []
    },
    {
        "name": "183208",
        "latitude": 50.8085798116,
        "longitude": 19.1099440903,
        "country": "PL",
        "iconUrl": "DHL.svg",
        "owner": "DHL",
        "address": "Poland",
        "city": []
    },
    {
        "name": "183209",
        "latitude": 52.2499772489,
        "longitude": 21.0876678886,
        "country": "PL",
        "iconUrl": "DHL.svg",
        "owner": "DHL",
        "address": "Poland",
        "city": []
    },
    {
        "name": "183210",
        "latitude": 50.820272534,
        "longitude": 19.1310186585,
        "country": "PL",
        "iconUrl": "DHL.svg",
        "owner": "DHL",
        "address": "Poland",
        "city": []
    },
    {
        "name": "183500",
        "latitude": 52.41013008,
        "longitude": 21.17594856,
        "country": "PL",
        "iconUrl": "DHL.svg",
        "owner": "DHL",
        "address": "Poland",
        "city": []
    },
    {
        "name": "183501",
        "latitude": 52.59350987,
        "longitude": 21.452757,
        "country": "PL",
        "iconUrl": "DHL.svg",
        "owner": "DHL",
        "address": "Poland",
        "city": []
    },
    {
        "name": "183502",
        "latitude": 50.81850465,
        "longitude": 19.09446993,
        "country": "PL",
        "iconUrl": "DHL.svg",
        "owner": "DHL",
        "address": "Poland",
        "city": []
    },
    {
        "name": "183503",
        "latitude": 52.17031019,
        "longitude": 21.15691912,
        "country": "PL",
        "iconUrl": "DHL.svg",
        "owner": "DHL",
        "address": "Poland",
        "city": []
    },
    {
        "name": "183504",
        "latitude": 52.3757434,
        "longitude": 16.864813,
        "country": "PL",
        "iconUrl": "DHL.svg",
        "owner": "DHL",
        "address": "Poland",
        "city": []
    },
    {
        "name": "183470",
        "latitude": 52.27978322,
        "longitude": 21.05577058,
        "country": "PL",
        "iconUrl": "DHL.svg",
        "owner": "DHL",
        "address": "Poland",
        "city": []
    },
    {
        "name": "183471",
        "latitude": 52.4566501,
        "longitude": 16.8900562,
        "country": "PL",
        "iconUrl": "DHL.svg",
        "owner": "DHL",
        "address": "Poland",
        "city": []
    },
    {
        "name": "183472",
        "latitude": 54.40372617,
        "longitude": 18.66032673,
        "country": "PL",
        "iconUrl": "DHL.svg",
        "owner": "DHL",
        "address": "Poland",
        "city": []
    },
    {
        "name": "183473",
        "latitude": 52.55779563,
        "longitude": 19.6685998,
        "country": "PL",
        "iconUrl": "DHL.svg",
        "owner": "DHL",
        "address": "Poland",
        "city": []
    },
    {
        "name": "183474",
        "latitude": 49.8006024949,
        "longitude": 19.0616725384,
        "country": "PL",
        "iconUrl": "DHL.svg",
        "owner": "DHL",
        "address": "Poland",
        "city": []
    },
    {
        "name": "183475",
        "latitude": 52.401959,
        "longitude": 17.2193474,
        "country": "PL",
        "iconUrl": "DHL.svg",
        "owner": "DHL",
        "address": "Poland",
        "city": []
    },
    {
        "name": "183476",
        "latitude": 52.3891145,
        "longitude": 16.8758468,
        "country": "PL",
        "iconUrl": "DHL.svg",
        "owner": "DHL",
        "address": "Poland",
        "city": []
    },
    {
        "name": "183477",
        "latitude": 52.385823,
        "longitude": 16.842372,
        "country": "PL",
        "iconUrl": "DHL.svg",
        "owner": "DHL",
        "address": "Poland",
        "city": []
    },
    {
        "name": "183478",
        "latitude": 51.97413808,
        "longitude": 20.52200869,
        "country": "PL",
        "iconUrl": "DHL.svg",
        "owner": "DHL",
        "address": "Poland",
        "city": []
    },
    {
        "name": "183479",
        "latitude": 50.14866259,
        "longitude": 18.83981623,
        "country": "PL",
        "iconUrl": "DHL.svg",
        "owner": "DHL",
        "address": "Poland",
        "city": []
    },
    {
        "name": "183480",
        "latitude": 51.7272123,
        "longitude": 19.45874017,
        "country": "PL",
        "iconUrl": "DHL.svg",
        "owner": "DHL",
        "address": "Poland",
        "city": []
    },
    {
        "name": "183481",
        "latitude": 52.3819614,
        "longitude": 16.8618362,
        "country": "PL",
        "iconUrl": "DHL.svg",
        "owner": "DHL",
        "address": "Poland",
        "city": []
    },
    {
        "name": "183482",
        "latitude": 52.4460354,
        "longitude": 16.8968691,
        "country": "PL",
        "iconUrl": "DHL.svg",
        "owner": "DHL",
        "address": "Poland",
        "city": []
    },
    {
        "name": "183483",
        "latitude": 53.11720863,
        "longitude": 17.99366753,
        "country": "PL",
        "iconUrl": "DHL.svg",
        "owner": "DHL",
        "address": "Poland",
        "city": []
    },
    {
        "name": "183484",
        "latitude": 50.09463003,
        "longitude": 18.54549819,
        "country": "PL",
        "iconUrl": "DHL.svg",
        "owner": "DHL",
        "address": "Poland",
        "city": []
    },
    {
        "name": "183485",
        "latitude": 53.11931822,
        "longitude": 18.01204063,
        "country": "PL",
        "iconUrl": "DHL.svg",
        "owner": "DHL",
        "address": "Poland",
        "city": []
    },
    {
        "name": "183486",
        "latitude": 51.72890757,
        "longitude": 19.48171232,
        "country": "PL",
        "iconUrl": "DHL.svg",
        "owner": "DHL",
        "address": "Poland",
        "city": []
    },
    {
        "name": "183487",
        "latitude": 50.26451,
        "longitude": 19.042093,
        "country": "PL",
        "iconUrl": "DHL.svg",
        "owner": "DHL",
        "address": "Poland",
        "city": []
    },
    {
        "name": "183488",
        "latitude": 50.32132144,
        "longitude": 19.11125854,
        "country": "PL",
        "iconUrl": "DHL.svg",
        "owner": "DHL",
        "address": "Poland",
        "city": []
    },
    {
        "name": "183489",
        "latitude": 50.26541025,
        "longitude": 19.05667136,
        "country": "PL",
        "iconUrl": "DHL.svg",
        "owner": "DHL",
        "address": "Poland",
        "city": []
    },
    {
        "name": "184161",
        "latitude": 52.5591674338,
        "longitude": 19.6863170875,
        "country": "PL",
        "iconUrl": "DHL.svg",
        "owner": "DHL",
        "address": "Poland",
        "city": []
    },
    {
        "name": "184162",
        "latitude": 52.2760775531,
        "longitude": 20.9224810323,
        "country": "PL",
        "iconUrl": "DHL.svg",
        "owner": "DHL",
        "address": "Poland",
        "city": []
    },
    {
        "name": "184163",
        "latitude": 51.257612046,
        "longitude": 22.5515855978,
        "country": "PL",
        "iconUrl": "DHL.svg",
        "owner": "DHL",
        "address": "Poland",
        "city": []
    },
    {
        "name": "184164",
        "latitude": 53.032589763,
        "longitude": 18.600462089,
        "country": "PL",
        "iconUrl": "DHL.svg",
        "owner": "DHL",
        "address": "Poland",
        "city": []
    },
    {
        "name": "184165",
        "latitude": 52.2206516082,
        "longitude": 21.0903410867,
        "country": "PL",
        "iconUrl": "DHL.svg",
        "owner": "DHL",
        "address": "Poland",
        "city": []
    },
    {
        "name": "184166",
        "latitude": 51.2580031918,
        "longitude": 22.5515989017,
        "country": "PL",
        "iconUrl": "DHL.svg",
        "owner": "DHL",
        "address": "Poland",
        "city": []
    },
    {
        "name": "184167",
        "latitude": 50.675104529,
        "longitude": 17.9506460408,
        "country": "PL",
        "iconUrl": "DHL.svg",
        "owner": "DHL",
        "address": "Poland",
        "city": []
    },
    {
        "name": "184168",
        "latitude": 51.7545998,
        "longitude": 19.5389958,
        "country": "PL",
        "iconUrl": "DHL.svg",
        "owner": "DHL",
        "address": "Poland",
        "city": []
    },
    {
        "name": "184169",
        "latitude": 52.1778957352,
        "longitude": 21.0011443967,
        "country": "PL",
        "iconUrl": "DHL.svg",
        "owner": "DHL",
        "address": "Poland",
        "city": []
    },
    {
        "name": "184394",
        "latitude": 50.042492102,
        "longitude": 21.9728868711,
        "country": "PL",
        "iconUrl": "DHL.svg",
        "owner": "DHL",
        "address": "Poland",
        "city": []
    },
    {
        "name": "184395",
        "latitude": 52.059750633,
        "longitude": 21.3911114708,
        "country": "PL",
        "iconUrl": "DHL.svg",
        "owner": "DHL",
        "address": "Poland",
        "city": []
    },
    {
        "name": "184396",
        "latitude": 53.0111911079,
        "longitude": 18.5723261847,
        "country": "PL",
        "iconUrl": "DHL.svg",
        "owner": "DHL",
        "address": "Poland",
        "city": []
    },
    {
        "name": "184397",
        "latitude": 50.33074742,
        "longitude": 18.77256455,
        "country": "PL",
        "iconUrl": "DHL.svg",
        "owner": "DHL",
        "address": "Poland",
        "city": []
    },
    {
        "name": "184398",
        "latitude": 52.60155162,
        "longitude": 21.43355651,
        "country": "PL",
        "iconUrl": "DHL.svg",
        "owner": "DHL",
        "address": "Poland",
        "city": []
    },
    {
        "name": "184399",
        "latitude": 53.12531119,
        "longitude": 18.03052117,
        "country": "PL",
        "iconUrl": "DHL.svg",
        "owner": "DHL",
        "address": "Poland",
        "city": []
    },
    {
        "name": "184400",
        "latitude": 53.1436168171,
        "longitude": 23.1542272098,
        "country": "PL",
        "iconUrl": "DHL.svg",
        "owner": "DHL",
        "address": "Poland",
        "city": []
    },
    {
        "name": "184401",
        "latitude": 50.046344,
        "longitude": 18.688493,
        "country": "PL",
        "iconUrl": "DHL.svg",
        "owner": "DHL",
        "address": "Poland",
        "city": []
    },
    {
        "name": "184402",
        "latitude": 50.2705729224,
        "longitude": 19.0409789688,
        "country": "PL",
        "iconUrl": "DHL.svg",
        "owner": "DHL",
        "address": "Poland",
        "city": []
    },
    {
        "name": "184403",
        "latitude": 52.24882921,
        "longitude": 21.27248083,
        "country": "PL",
        "iconUrl": "DHL.svg",
        "owner": "DHL",
        "address": "Poland",
        "city": []
    },
    {
        "name": "184404",
        "latitude": 52.4295351,
        "longitude": 16.9260379,
        "country": "PL",
        "iconUrl": "DHL.svg",
        "owner": "DHL",
        "address": "Poland",
        "city": []
    },
    {
        "name": "184406",
        "latitude": 50.2913700328,
        "longitude": 18.7964194914,
        "country": "PL",
        "iconUrl": "DHL.svg",
        "owner": "DHL",
        "address": "Poland",
        "city": []
    },
    {
        "name": "184407",
        "latitude": 51.7996504,
        "longitude": 19.4777296,
        "country": "PL",
        "iconUrl": "DHL.svg",
        "owner": "DHL",
        "address": "Poland",
        "city": []
    },
    {
        "name": "184408",
        "latitude": 51.7956397,
        "longitude": 19.3625549,
        "country": "PL",
        "iconUrl": "DHL.svg",
        "owner": "DHL",
        "address": "Poland",
        "city": []
    },
    {
        "name": "184409",
        "latitude": 49.8133187394,
        "longitude": 19.0308649118,
        "country": "PL",
        "iconUrl": "DHL.svg",
        "owner": "DHL",
        "address": "Poland",
        "city": []
    },
    {
        "name": "184410",
        "latitude": 53.15302339,
        "longitude": 17.90924557,
        "country": "PL",
        "iconUrl": "DHL.svg",
        "owner": "DHL",
        "address": "Poland",
        "city": []
    },
    {
        "name": "184412",
        "latitude": 52.15021225,
        "longitude": 21.22196044,
        "country": "PL",
        "iconUrl": "DHL.svg",
        "owner": "DHL",
        "address": "Poland",
        "city": []
    },
    {
        "name": "184413",
        "latitude": 51.17360039,
        "longitude": 22.29546663,
        "country": "PL",
        "iconUrl": "DHL.svg",
        "owner": "DHL",
        "address": "Poland",
        "city": []
    },
    {
        "name": "184414",
        "latitude": 51.744998,
        "longitude": 19.3993555,
        "country": "PL",
        "iconUrl": "DHL.svg",
        "owner": "DHL",
        "address": "Poland",
        "city": []
    },
    {
        "name": "184415",
        "latitude": 51.7399307,
        "longitude": 19.4915361,
        "country": "PL",
        "iconUrl": "DHL.svg",
        "owner": "DHL",
        "address": "Poland",
        "city": []
    },
    {
        "name": "184416",
        "latitude": 54.32926865,
        "longitude": 18.20395516,
        "country": "PL",
        "iconUrl": "DHL.svg",
        "owner": "DHL",
        "address": "Poland",
        "city": []
    },
    {
        "name": "184417",
        "latitude": 54.39862691,
        "longitude": 18.60974838,
        "country": "PL",
        "iconUrl": "DHL.svg",
        "owner": "DHL",
        "address": "Poland",
        "city": []
    },
    {
        "name": "184418",
        "latitude": 53.01877646,
        "longitude": 18.6045532,
        "country": "PL",
        "iconUrl": "DHL.svg",
        "owner": "DHL",
        "address": "Poland",
        "city": []
    },
    {
        "name": "184419",
        "latitude": 52.0708452,
        "longitude": 20.43491718,
        "country": "PL",
        "iconUrl": "DHL.svg",
        "owner": "DHL",
        "address": "Poland",
        "city": []
    },
    {
        "name": "184420",
        "latitude": 49.8154989202,
        "longitude": 18.9745501191,
        "country": "PL",
        "iconUrl": "DHL.svg",
        "owner": "DHL",
        "address": "Poland",
        "city": []
    },
    {
        "name": "184421",
        "latitude": 54.39481032,
        "longitude": 18.6165909,
        "country": "PL",
        "iconUrl": "DHL.svg",
        "owner": "DHL",
        "address": "Poland",
        "city": []
    },
    {
        "name": "184422",
        "latitude": 49.8171885865,
        "longitude": 19.0278919469,
        "country": "PL",
        "iconUrl": "DHL.svg",
        "owner": "DHL",
        "address": "Poland",
        "city": []
    },
    {
        "name": "184423",
        "latitude": 53.050112,
        "longitude": 18.58312656,
        "country": "PL",
        "iconUrl": "DHL.svg",
        "owner": "DHL",
        "address": "Poland",
        "city": []
    },
    {
        "name": "184424",
        "latitude": 52.2709428388,
        "longitude": 20.9491598068,
        "country": "PL",
        "iconUrl": "DHL.svg",
        "owner": "DHL",
        "address": "Poland",
        "city": []
    },
    {
        "name": "184425",
        "latitude": 50.0991555132,
        "longitude": 19.0853559081,
        "country": "PL",
        "iconUrl": "DHL.svg",
        "owner": "DHL",
        "address": "Poland",
        "city": []
    },
    {
        "name": "184426",
        "latitude": 51.7705860221,
        "longitude": 15.8179638295,
        "country": "PL",
        "iconUrl": "DHL.svg",
        "owner": "DHL",
        "address": "Poland",
        "city": []
    },
    {
        "name": "184427",
        "latitude": 52.1814204562,
        "longitude": 20.8873669044,
        "country": "PL",
        "iconUrl": "DHL.svg",
        "owner": "DHL",
        "address": "Poland",
        "city": []
    },
    {
        "name": "184434",
        "latitude": 51.7518583863,
        "longitude": 15.0102252878,
        "country": "PL",
        "iconUrl": "DHL.svg",
        "owner": "DHL",
        "address": "Poland",
        "city": []
    },
    {
        "name": "184435",
        "latitude": 49.949381659,
        "longitude": 18.6144525749,
        "country": "PL",
        "iconUrl": "DHL.svg",
        "owner": "DHL",
        "address": "Poland",
        "city": []
    },
    {
        "name": "184436",
        "latitude": 52.1243299143,
        "longitude": 21.0986016164,
        "country": "PL",
        "iconUrl": "DHL.svg",
        "owner": "DHL",
        "address": "Poland",
        "city": []
    },
    {
        "name": "184438",
        "latitude": 52.07276923,
        "longitude": 21.02343607,
        "country": "PL",
        "iconUrl": "DHL.svg",
        "owner": "DHL",
        "address": "Poland",
        "city": []
    },
    {
        "name": "184683",
        "latitude": 52.18538696,
        "longitude": 20.83925373,
        "country": "PL",
        "iconUrl": "DHL.svg",
        "owner": "DHL",
        "address": "Poland",
        "city": []
    },
    {
        "name": "184684",
        "latitude": 50.10286946,
        "longitude": 18.99487291,
        "country": "PL",
        "iconUrl": "DHL.svg",
        "owner": "DHL",
        "address": "Poland",
        "city": []
    },
    {
        "name": "184685",
        "latitude": 50.0224196,
        "longitude": 22.0083843,
        "country": "PL",
        "iconUrl": "DHL.svg",
        "owner": "DHL",
        "address": "Poland",
        "city": []
    },
    {
        "name": "184686",
        "latitude": 51.6936855183,
        "longitude": 15.731804103,
        "country": "PL",
        "iconUrl": "DHL.svg",
        "owner": "DHL",
        "address": "Poland",
        "city": []
    },
    {
        "name": "184687",
        "latitude": 53.12956211,
        "longitude": 17.93257111,
        "country": "PL",
        "iconUrl": "DHL.svg",
        "owner": "DHL",
        "address": "Poland",
        "city": []
    },
    {
        "name": "184688",
        "latitude": 52.3521214,
        "longitude": 16.8828753,
        "country": "PL",
        "iconUrl": "DHL.svg",
        "owner": "DHL",
        "address": "Poland",
        "city": []
    },
    {
        "name": "184689",
        "latitude": 53.11360095,
        "longitude": 18.02298726,
        "country": "PL",
        "iconUrl": "DHL.svg",
        "owner": "DHL",
        "address": "Poland",
        "city": []
    },
    {
        "name": "184690",
        "latitude": 49.8400553154,
        "longitude": 19.0528980984,
        "country": "PL",
        "iconUrl": "DHL.svg",
        "owner": "DHL",
        "address": "Poland",
        "city": []
    },
    {
        "name": "184691",
        "latitude": 50.39925735,
        "longitude": 18.63177995,
        "country": "PL",
        "iconUrl": "DHL.svg",
        "owner": "DHL",
        "address": "Poland",
        "city": []
    },
    {
        "name": "184692",
        "latitude": 50.8383351552,
        "longitude": 19.1328326834,
        "country": "PL",
        "iconUrl": "DHL.svg",
        "owner": "DHL",
        "address": "Poland",
        "city": []
    },
    {
        "name": "184693",
        "latitude": 51.7515292744,
        "longitude": 19.4104165535,
        "country": "PL",
        "iconUrl": "DHL.svg",
        "owner": "DHL",
        "address": "Poland",
        "city": []
    },
    {
        "name": "184694",
        "latitude": 53.152000346,
        "longitude": 23.1233808083,
        "country": "PL",
        "iconUrl": "DHL.svg",
        "owner": "DHL",
        "address": "Poland",
        "city": []
    },
    {
        "name": "184695",
        "latitude": 50.8695757463,
        "longitude": 20.6384618721,
        "country": "PL",
        "iconUrl": "DHL.svg",
        "owner": "DHL",
        "address": "Poland",
        "city": []
    },
    {
        "name": "184791",
        "latitude": 53.04185361,
        "longitude": 18.58004038,
        "country": "PL",
        "iconUrl": "DHL.svg",
        "owner": "DHL",
        "address": "Poland",
        "city": []
    },
    {
        "name": "184792",
        "latitude": 50.038344,
        "longitude": 22.026165,
        "country": "PL",
        "iconUrl": "DHL.svg",
        "owner": "DHL",
        "address": "Poland",
        "city": []
    },
    {
        "name": "184750",
        "latitude": 52.55429003,
        "longitude": 19.70773897,
        "country": "PL",
        "iconUrl": "DHL.svg",
        "owner": "DHL",
        "address": "Poland",
        "city": []
    },
    {
        "name": "184751",
        "latitude": 50.0309297119,
        "longitude": 18.6810984663,
        "country": "PL",
        "iconUrl": "DHL.svg",
        "owner": "DHL",
        "address": "Poland",
        "city": []
    },
    {
        "name": "184752",
        "latitude": 50.0385930473,
        "longitude": 18.6795742342,
        "country": "PL",
        "iconUrl": "DHL.svg",
        "owner": "DHL",
        "address": "Poland",
        "city": []
    },
    {
        "name": "184753",
        "latitude": 50.9714806474,
        "longitude": 16.9295386903,
        "country": "PL",
        "iconUrl": "DHL.svg",
        "owner": "DHL",
        "address": "Poland",
        "city": []
    },
    {
        "name": "184754",
        "latitude": 52.254238,
        "longitude": 20.9146296,
        "country": "PL",
        "iconUrl": "DHL.svg",
        "owner": "DHL",
        "address": "Poland",
        "city": []
    },
    {
        "name": "184755",
        "latitude": 50.8667035194,
        "longitude": 20.6186519824,
        "country": "PL",
        "iconUrl": "DHL.svg",
        "owner": "DHL",
        "address": "Poland",
        "city": []
    },
    {
        "name": "184881",
        "latitude": 51.7295424,
        "longitude": 19.4693392,
        "country": "PL",
        "iconUrl": "DHL.svg",
        "owner": "DHL",
        "address": "Poland",
        "city": []
    },
    {
        "name": "184882",
        "latitude": 53.7396773955,
        "longitude": 20.5087660563,
        "country": "PL",
        "iconUrl": "DHL.svg",
        "owner": "DHL",
        "address": "Poland",
        "city": []
    },
    {
        "name": "184884",
        "latitude": 51.0656986729,
        "longitude": 17.0331072176,
        "country": "PL",
        "iconUrl": "DHL.svg",
        "owner": "DHL",
        "address": "Poland",
        "city": []
    },
    {
        "name": "185038",
        "latitude": 52.2601412748,
        "longitude": 20.918110033,
        "country": "PL",
        "iconUrl": "DHL.svg",
        "owner": "DHL",
        "address": "Poland",
        "city": []
    },
    {
        "name": "185039",
        "latitude": 50.8231109737,
        "longitude": 19.1264613531,
        "country": "PL",
        "iconUrl": "DHL.svg",
        "owner": "DHL",
        "address": "Poland",
        "city": []
    },
    {
        "name": "185040",
        "latitude": 54.3903607312,
        "longitude": 18.6090665696,
        "country": "PL",
        "iconUrl": "DHL.svg",
        "owner": "DHL",
        "address": "Poland",
        "city": []
    },
    {
        "name": "185042",
        "latitude": 50.7993773713,
        "longitude": 19.1162551603,
        "country": "PL",
        "iconUrl": "DHL.svg",
        "owner": "DHL",
        "address": "Poland",
        "city": []
    },
    {
        "name": "185043",
        "latitude": 54.3179141275,
        "longitude": 18.5694437124,
        "country": "PL",
        "iconUrl": "DHL.svg",
        "owner": "DHL",
        "address": "Poland",
        "city": []
    },
    {
        "name": "Pakketautomaat Lidl Leeuwerikplein",
        "latitude": 52.520062,
        "longitude": 4.961307,
        "country": "NL",
        "iconUrl": "DHL.svg",
        "owner": "GHL ",
        "address": "Purmerend Leeuwerikplein 27postalCode1444HX",
        "city": [
            "Purmerend"
        ]
    },
    {
        "name": "Pakketautomaat Kemphaanstraat",
        "latitude": 52.498783,
        "longitude": 4.810097,
        "country": "NL",
        "iconUrl": "DHL.svg",
        "owner": "GHL ",
        "address": "Wormer Kemphaanstraat 2postalCode1531VE",
        "city": [
            "Wormer"
        ]
    },
    {
        "name": "Pakketautomaat Lidl Alkmaar",
        "latitude": 52.618658,
        "longitude": 4.747835,
        "country": "NL",
        "iconUrl": "DHL.svg",
        "owner": "GHL ",
        "address": "Alkmaar Boendalestraat 6postalCode1813BT",
        "city": [
            "Alkmaar"
        ]
    },
    {
        "name": "Pakketautomaat Lidl Jonkerplein",
        "latitude": 52.461191,
        "longitude": 4.816841,
        "country": "NL",
        "iconUrl": "DHL.svg",
        "owner": "GHL ",
        "address": "Zaandam Boere Jonkerplein 1postalCode1508HA",
        "city": [
            "Zaandam"
        ]
    },
    {
        "name": "Pakketautomaat WC Middenwaard",
        "latitude": 52.662964,
        "longitude": 4.829755,
        "country": "NL",
        "iconUrl": "DHL.svg",
        "owner": "GHL ",
        "address": "Heerhugowaard Middenwaard 2postalCode1703SE",
        "city": [
            "Heerhugowaard"
        ]
    },
    {
        "name": "Pakketautomaat Wieringenlaan",
        "latitude": 52.510054,
        "longitude": 5.073521,
        "country": "NL",
        "iconUrl": "DHL.svg",
        "owner": "GHL ",
        "address": "Volendam Wieringenlaan 1postalCode1132MB",
        "city": [
            "Volendam"
        ]
    },
    {
        "name": "Pakketautomaat Lidl Hoorn",
        "latitude": 52.644624,
        "longitude": 5.080557,
        "country": "NL",
        "iconUrl": "DHL.svg",
        "owner": "GHL ",
        "address": "Hoorn Clausplein 28postalCode1623KD",
        "city": [
            "Hoorn"
        ]
    },
    {
        "name": "Pakketautomaat Grootzeil",
        "latitude": 52.388654,
        "longitude": 5.178093,
        "country": "NL",
        "iconUrl": "DHL.svg",
        "owner": "GHL ",
        "address": "Almere Grootzeil 52postalCode1319AS",
        "city": [
            "Almere"
        ]
    },
    {
        "name": "Pakketautomaat Prozastraat",
        "latitude": 52.35759,
        "longitude": 5.183109,
        "country": "NL",
        "iconUrl": "DHL.svg",
        "owner": "GHL ",
        "address": "Almere Prozastraat 111postalCode1321GZ",
        "city": [
            "Almere"
        ]
    },
    {
        "name": "Pakketautomaat Lidl Oosterwold",
        "latitude": 52.375876,
        "longitude": 5.292611,
        "country": "NL",
        "iconUrl": "DHL.svg",
        "owner": "GHL ",
        "address": "Almere Daniel Goedkoopstraat 21postalCode1349GJ",
        "city": [
            "Almere"
        ]
    },
    {
        "name": "Pakketautomaat Lidl Huizen",
        "latitude": 52.304841,
        "longitude": 5.237571,
        "country": "NL",
        "iconUrl": "DHL.svg",
        "owner": "GHL ",
        "address": "Huizen Warandebergstraat 47postalCode1271ZC",
        "city": [
            "Huizen"
        ]
    },
    {
        "name": "Pakketautomaat Lidl Hilversum",
        "latitude": 52.227346,
        "longitude": 5.189653,
        "country": "NL",
        "iconUrl": "DHL.svg",
        "owner": "GHL ",
        "address": "Hilversum Lorentzweg 59postalCode1221EE",
        "city": [
            "Hilversum"
        ]
    },
    {
        "name": "Pakketautomaat Total Kromwijkdreef",
        "latitude": 52.315044,
        "longitude": 4.981837,
        "country": "NL",
        "iconUrl": "DHL.svg",
        "owner": "GHL ",
        "address": "Amsterdam Kromwijkdreef 20postalCode1104KM",
        "city": [
            "Amsterdam"
        ]
    },
    {
        "name": "DHL - Pakketautomaat Shell IKEA",
        "latitude": 52.302763,
        "longitude": 4.947633,
        "country": "NL",
        "iconUrl": "DHL.svg",
        "owner": "GHL ",
        "address": "Amsterdam Laarderhoogtweg 5postalCode1101DZ",
        "city": [
            "Amsterdam"
        ]
    },
    {
        "name": "Pakketautomaat Lidl Bijlmerplein",
        "latitude": 52.313965,
        "longitude": 4.951174,
        "country": "NL",
        "iconUrl": "DHL.svg",
        "owner": "GHL ",
        "address": "Amsterdam Bijlmerplein 94postalCode1102DA",
        "city": [
            "Amsterdam"
        ]
    },
    {
        "name": "Pakketautomaat Lindeboom",
        "latitude": 52.208189,
        "longitude": 4.867221,
        "country": "NL",
        "iconUrl": "DHL.svg",
        "owner": "GHL ",
        "address": "Mijdrecht Lindeboom 25postalCode3641EX",
        "city": [
            "Mijdrecht"
        ]
    },
    {
        "name": "Pakketautomaat DHL Binnen",
        "latitude": 52.104981,
        "longitude": 5.064085,
        "country": "NL",
        "iconUrl": "DHL.svg",
        "owner": "GHL ",
        "address": "Utrecht Reactorweg 25postalCode3542AD",
        "city": [
            "Utrecht"
        ]
    },
    {
        "name": "Pakketautomaat Keizer Karelweg",
        "latitude": 52.303077,
        "longitude": 4.856755,
        "country": "NL",
        "iconUrl": "DHL.svg",
        "owner": "GHL ",
        "address": "Amstelveen Keizer Karelweg 223postalCode1181RC",
        "city": [
            "Amstelveen"
        ]
    },
    {
        "name": "Pakketautomaat Lidl Aalsmeer",
        "latitude": 52.266432,
        "longitude": 4.748896,
        "country": "NL",
        "iconUrl": "DHL.svg",
        "owner": "GHL ",
        "address": "Aalsmeer Stationsweg 8postalCode1431EG",
        "city": [
            "Aalsmeer"
        ]
    },
    {
        "name": "Pakketautomaat Lidl Amsterdamseweg",
        "latitude": 52.311601,
        "longitude": 4.847873,
        "country": "NL",
        "iconUrl": "DHL.svg",
        "owner": "GHL ",
        "address": "Amstelveen Amsterdamseweg 188postalCode1182HL",
        "city": [
            "Amstelveen"
        ]
    },
    {
        "name": "DHL - Pakketautomaat Uilenstede",
        "latitude": 52.321094,
        "longitude": 4.874624,
        "country": "NL",
        "iconUrl": "DHL.svg",
        "owner": "GHL ",
        "address": "Amstelveen Uilenstede 356postalCode1183DB",
        "city": [
            "Amstelveen"
        ]
    },
    {
        "name": "Pakketautomaat Lidl Hoofddorp",
        "latitude": 52.305331,
        "longitude": 4.694387,
        "country": "NL",
        "iconUrl": "DHL.svg",
        "owner": "GHL ",
        "address": "Hoofddorp Marktplein 15postalCode2132DA",
        "city": [
            "Hoofddorp"
        ]
    },
    {
        "name": "Pakketautomaat Laan v Wickevoort",
        "latitude": 52.333035,
        "longitude": 4.650198,
        "country": "NL",
        "iconUrl": "DHL.svg",
        "owner": "GHL ",
        "address": "Cruquius Laan van Wickevoort 1postalCode2142GC",
        "city": [
            "Cruquius"
        ]
    },
    {
        "name": "Pakketautomaat Da Vinci plein",
        "latitude": 52.355554,
        "longitude": 4.663653,
        "country": "NL",
        "iconUrl": "DHL.svg",
        "owner": "GHL ",
        "address": "Haarlem Leonarde Da Vinciplein 4postalCode2037RR",
        "city": [
            "Haarlem"
        ]
    },
    {
        "name": "Pakketautomaat Stephensonstraat",
        "latitude": 52.369366,
        "longitude": 4.61367,
        "country": "NL",
        "iconUrl": "DHL.svg",
        "owner": "GHL ",
        "address": "Haarlem Stephensonstraat 50postalCode2014KD",
        "city": [
            "Haarlem"
        ]
    },
    {
        "name": "Pakketautomaat Total Vlaamseweg",
        "latitude": 52.381046,
        "longitude": 4.611511,
        "country": "NL",
        "iconUrl": "DHL.svg",
        "owner": "GHL ",
        "address": "Haarlem Vlaamseweg 2postalCode2015GA",
        "city": [
            "Haarlem"
        ]
    },
    {
        "name": "Pakketautomaat WC Spaarneboog",
        "latitude": 52.390827,
        "longitude": 4.648902,
        "country": "NL",
        "iconUrl": "DHL.svg",
        "owner": "GHL ",
        "address": "Haarlem Paul Krugerkade 26postalCode2021BN",
        "city": [
            "Haarlem"
        ]
    },
    {
        "name": "Pakketautomaat Zeewijk-passage",
        "latitude": 52.449369,
        "longitude": 4.596318,
        "country": "NL",
        "iconUrl": "DHL.svg",
        "owner": "GHL ",
        "address": "IJmuiden Zeewijkplein 1postalCode1974PA",
        "city": [
            "IJmuiden"
        ]
    },
    {
        "name": "Pakketautomaat Apotheek Donker",
        "latitude": 52.472379,
        "longitude": 4.645394,
        "country": "NL",
        "iconUrl": "DHL.svg",
        "owner": "GHL ",
        "address": "Velsen-Noord Wijkerstraatweg 171postalCode1951ED",
        "city": [
            "Velsen-Noord"
        ]
    },
    {
        "name": "Pakketautomaat Lidl Beverwijk",
        "latitude": 52.484658,
        "longitude": 4.665924,
        "country": "NL",
        "iconUrl": "DHL.svg",
        "owner": "GHL ",
        "address": "Beverwijk Spoorsingel 21postalCode1947LA",
        "city": [
            "Beverwijk"
        ]
    },
    {
        "name": "Pakketautomaat Lidl Assendelft",
        "latitude": 52.466205,
        "longitude": 4.740705,
        "country": "NL",
        "iconUrl": "DHL.svg",
        "owner": "GHL ",
        "address": "Assendelft Dorpsstraat 387postalCode1566BE",
        "city": [
            "Assendelft"
        ]
    },
    {
        "name": "Pakketautomaat WC Geesterduin",
        "latitude": 52.550478,
        "longitude": 4.673303,
        "country": "NL",
        "iconUrl": "DHL.svg",
        "owner": "GHL ",
        "address": "Castricum Geesterduin 36postalCode1902EL",
        "city": [
            "Castricum"
        ]
    },
    {
        "name": "Pakketautomaat Stationsplein",
        "latitude": 52.599866,
        "longitude": 4.701448,
        "country": "NL",
        "iconUrl": "DHL.svg",
        "owner": "GHL ",
        "address": "Heiloo Stationsplein 34postalCode1851LN",
        "city": [
            "Heiloo"
        ]
    },
    {
        "name": "Pakketautomaat All4running",
        "latitude": 52.631354,
        "longitude": 4.746235,
        "country": "NL",
        "iconUrl": "DHL.svg",
        "owner": "GHL ",
        "address": "Alkmaar Breedstraat 38postalCode1811HG",
        "city": [
            "Alkmaar"
        ]
    },
    {
        "name": "Pakketautomaat Total de Hoef",
        "latitude": 52.633705,
        "longitude": 4.72606,
        "country": "NL",
        "iconUrl": "DHL.svg",
        "owner": "GHL ",
        "address": "Alkmaar Blanckerhofweg 1postalCode1816HG",
        "city": [
            "Alkmaar"
        ]
    },
    {
        "name": "Pakketautomaat Lidl Zuideinde",
        "latitude": 52.422646,
        "longitude": 4.890537,
        "country": "NL",
        "iconUrl": "ghlN.svg",
        "owner": "GHL Netherland",
        "address": "Amsterdam Zuideinde 280postalCode1035PM",
        "city": [
            "Amsterdam"
        ]
    },
    {
        "name": "DHL - Pakketautomaat Shell",
        "latitude": 52.082177,
        "longitude": 5.003359,
        "country": "NL",
        "iconUrl": "ghlN.svg",
        "owner": "GHL Netherland",
        "address": "Harmelen Veldhuizerweg 2postalCode3481ZZ",
        "city": [
            "Harmelen"
        ]
    },
    {
        "name": "Pakketautomaat Lidl Woerden",
        "latitude": 52.08171,
        "longitude": 4.876446,
        "country": "NL",
        "iconUrl": "ghlN.svg",
        "owner": "GHL Netherland",
        "address": "Woerden Lepenlaan 1postalCode3442EK",
        "city": [
            "Woerden"
        ]
    },
    {
        "name": "Pakketautomaat De Aarhof",
        "latitude": 52.129558,
        "longitude": 4.665017,
        "country": "NL",
        "iconUrl": "ghlN.svg",
        "owner": "GHL Netherland",
        "address": "Alphen aan den Rijn De Aarhof 46postalCode2406BT",
        "city": [
            "Alphen aan den Rijn"
        ]
    },
    {
        "name": "Pakketautomaat Mr Sam Supermarkt",
        "latitude": 52.101826,
        "longitude": 4.426816,
        "country": "NL",
        "iconUrl": "ghlN.svg",
        "owner": "GHL Netherland",
        "address": "Den Haag Vissershavenweg 61postalCode2583DL",
        "city": [
            "Den Haag"
        ]
    },
    {
        "name": "Pakketautomaat Westwaarts",
        "latitude": 52.060929,
        "longitude": 4.486553,
        "country": "NL",
        "iconUrl": "ghlN.svg",
        "owner": "GHL Netherland",
        "address": "Zoetermeer Westwaarts 41postalCode2711AD",
        "city": [
            "Zoetermeer"
        ]
    },
    {
        "name": "Pakketautomaat Zaaijerplein",
        "latitude": 52.169728,
        "longitude": 4.476403,
        "country": "NL",
        "iconUrl": "ghlN.svg",
        "owner": "GHL Netherland",
        "address": "Leiden Zaaijerplein 2postalCode2333BG",
        "city": [
            "Leiden"
        ]
    },
    {
        "name": "DHL - Pakketautomaat Aldi Voorburg",
        "latitude": 52.08055,
        "longitude": 4.362663,
        "country": "NL",
        "iconUrl": "ghlN.svg",
        "owner": "GHL Netherland",
        "address": "Voorburg Monseigneur van Steelaan 205postalCode2273EM",
        "city": [
            "Voorburg"
        ]
    },
    {
        "name": "Pakketautomaat Lidl Gouda",
        "latitude": 52.009515,
        "longitude": 4.700659,
        "country": "NL",
        "iconUrl": "ghlN.svg",
        "owner": "GHL Netherland",
        "address": "Gouda Westerkade 4postalCode2802SL",
        "city": [
            "Gouda"
        ]
    },
    {
        "name": "Pakketautomaat Boons Dagmarkt",
        "latitude": 51.984898,
        "longitude": 4.676383,
        "country": "NL",
        "iconUrl": "ghlN.svg",
        "owner": "GHL Netherland",
        "address": "Gouderak Kranepoort 14postalCode2831AK",
        "city": [
            "Gouderak"
        ]
    },
    {
        "name": "Pakketautomaat Picassopassage",
        "latitude": 51.952779,
        "longitude": 4.58452,
        "country": "NL",
        "iconUrl": "ghlN.svg",
        "owner": "GHL Netherland",
        "address": "Capelle aan den IJssel Picassopassage 38postalCode2907ME",
        "city": [
            "Capelle aan den IJssel"
        ]
    },
    {
        "name": "Pakketautomaat Jumbo de Korf",
        "latitude": 51.922458,
        "longitude": 4.611355,
        "country": "NL",
        "iconUrl": "ghlN.svg",
        "owner": "GHL Netherland",
        "address": "Krimpen aan den IJssel De Korf 8postalCode2924AH",
        "city": [
            "Krimpen aan den IJssel"
        ]
    },
    {
        "name": "Pakketautomaat Jumbo Ernst Dijkman",
        "latitude": 51.914746,
        "longitude": 4.617872,
        "country": "NL",
        "iconUrl": "ghlN.svg",
        "owner": "GHL Netherland",
        "address": "Krimpen aan den IJssel De Olm 8postalCode2925CJ",
        "city": [
            "Krimpen aan den IJssel"
        ]
    },
    {
        "name": "Pakketautomaat AH Planetenlaan",
        "latitude": 51.885292,
        "longitude": 4.668314,
        "country": "NL",
        "iconUrl": "ghlN.svg",
        "owner": "GHL Netherland",
        "address": "Nieuw-Lekkerland Planetenlaan 35postalCode2957SL",
        "city": [
            "Nieuw-Lekkerland"
        ]
    },
    {
        "name": "Pakketautomaat Hoogambacht",
        "latitude": 51.83485,
        "longitude": 4.646024,
        "country": "NL",
        "iconUrl": "ghlN.svg",
        "owner": "GHL Netherland",
        "address": "Hendrik-Ido-Ambacht Sophiapromenade 74postalCode3344PM",
        "city": [
            "Hendrik-Ido-Ambacht"
        ]
    },
    {
        "name": "Pakketautomaat Veer Apotheek",
        "latitude": 51.816038,
        "longitude": 4.640274,
        "country": "NL",
        "iconUrl": "ghlN.svg",
        "owner": "GHL Netherland",
        "address": "Zwijndrecht Stationsplein 2postalCode3331LL",
        "city": [
            "Zwijndrecht"
        ]
    },
    {
        "name": "Pakketautomaat PA de Kok plein",
        "latitude": 51.785372,
        "longitude": 4.676561,
        "country": "NL",
        "iconUrl": "ghlN.svg",
        "owner": "GHL Netherland",
        "address": "Dordrecht P.A. de Kok-Plein 173postalCode3318JW",
        "city": [
            "Dordrecht"
        ]
    },
    {
        "name": "Pakketautomaat Lidl Oud-Beijerland",
        "latitude": 51.810676,
        "longitude": 4.434451,
        "country": "NL",
        "iconUrl": "ghlN.svg",
        "owner": "GHL Netherland",
        "address": "Oud-Beijerland Polderlaan 6postalCode3261ZA",
        "city": [
            "Oud-Beijerland"
        ]
    },
    {
        "name": "Pakketautomaat Ooltgensplaat",
        "latitude": 51.684418,
        "longitude": 4.340932,
        "country": "NL",
        "iconUrl": "ghlN.svg",
        "owner": "GHL Netherland",
        "address": "Ooltgensplaat Langeweg 100postalCode3257KD",
        "city": [
            "Ooltgensplaat"
        ]
    },
    {
        "name": "Pakketautomaat Lidl Spijkenisse",
        "latitude": 51.83401,
        "longitude": 4.361877,
        "country": "NL",
        "iconUrl": "ghlN.svg",
        "owner": "GHL Netherland",
        "address": "Spijkenisse Hadewychplaats 18postalCode3207KG",
        "city": [
            "Spijkenisse"
        ]
    },
    {
        "name": "Pakketautomaat Hongerlandsedijk",
        "latitude": 51.854481,
        "longitude": 4.341105,
        "country": "NL",
        "iconUrl": "ghlN.svg",
        "owner": "GHL Netherland",
        "address": "Spijkenisse Hongerlandsedijk 1postalCode3201LW",
        "city": [
            "Spijkenisse"
        ]
    },
    {
        "name": "Pakketautomaat Boyleweg",
        "latitude": 51.854695,
        "longitude": 4.302931,
        "country": "NL",
        "iconUrl": "ghlN.svg",
        "owner": "GHL Netherland",
        "address": "Spijkenisse Boyleweg 6postalCode3208KA",
        "city": [
            "Spijkenisse"
        ]
    },
    {
        "name": "Pakketautomaat Lidl Hellevoetsluis",
        "latitude": 51.831653,
        "longitude": 4.147253,
        "country": "NL",
        "iconUrl": "ghlN.svg",
        "owner": "GHL Netherland",
        "address": "Hellevoetsluis Struytse Hoeck 59postalCode3224HA",
        "city": [
            "Hellevoetsluis"
        ]
    },
    {
        "name": "Pakketautomaat Lidl Maassluis",
        "latitude": 51.937244,
        "longitude": 4.227649,
        "country": "NL",
        "iconUrl": "ghlN.svg",
        "owner": "GHL Netherland",
        "address": "Maassluis Westeinde 32postalCode3146BZ",
        "city": [
            "Maassluis"
        ]
    },
    {
        "name": "DHL - Pakketautomaat BP Tankst.",
        "latitude": 52.013861,
        "longitude": 4.280469,
        "country": "NL",
        "iconUrl": "ghlN.svg",
        "owner": "GHL Netherland",
        "address": "Wateringen Wippolderlaan 1postalCode2291HG",
        "city": [
            "Wateringen"
        ]
    },
    {
        "name": "Pakketautomaat WC Buitenhof",
        "latitude": 51.98788,
        "longitude": 4.346224,
        "country": "NL",
        "iconUrl": "ghlN.svg",
        "owner": "GHL Netherland",
        "address": "Delft Vrijheidslaan 22postalCode2625RD",
        "city": [
            "Delft"
        ]
    },
    {
        "name": "Pakketautomaat Lidl Delft",
        "latitude": 51.995747,
        "longitude": 4.341711,
        "country": "NL",
        "iconUrl": "ghlN.svg",
        "owner": "GHL Netherland",
        "address": "Delft Griegstraat 275postalCode2625AN",
        "city": [
            "Delft"
        ]
    },
    {
        "name": "Pakketautomaat Lidl De Stede",
        "latitude": 52.043916,
        "longitude": 4.259504,
        "country": "NL",
        "iconUrl": "ghlN.svg",
        "owner": "GHL Netherland",
        "address": "Den Haag De Stede 19postalCode2543BG",
        "city": [
            "Den Haag"
        ]
    },
    {
        "name": "Pakketautomaat Lidl Diepenbrockhof",
        "latitude": 52.059455,
        "longitude": 4.230617,
        "country": "NL",
        "iconUrl": "ghlN.svg",
        "owner": "GHL Netherland",
        "address": "Den Haag Alphons Diepenbrockhof 47postalCode2551KH",
        "city": [
            "Den Haag"
        ]
    },
    {
        "name": "Pakketautomaat Lidl Almeloplein",
        "latitude": 52.055386,
        "longitude": 4.275112,
        "country": "NL",
        "iconUrl": "ghlN.svg",
        "owner": "GHL Netherland",
        "address": "Den Haag Almeloplein 75postalCode2533AD",
        "city": [
            "Den Haag"
        ]
    },
    {
        "name": "Pakketautomaat HEMA Rijswijk",
        "latitude": 52.036987,
        "longitude": 4.315418,
        "country": "NL",
        "iconUrl": "ghlN.svg",
        "owner": "GHL Netherland",
        "address": "Rijswijk Prins Willem Alexander Promenade 18postalCode2284DG",
        "city": [
            "Rijswijk"
        ]
    },
    {
        "name": "Pakketautomaat Kalvermarkt",
        "latitude": 52.078362,
        "longitude": 4.318512,
        "country": "NL",
        "iconUrl": "ghlN.svg",
        "owner": "GHL Netherland",
        "address": "Den Haag Kalvermarkt 53postalCode2511CB",
        "city": [
            "Den Haag"
        ]
    },
    {
        "name": "Pakketautomaat Scheveningseweg",
        "latitude": 52.096954,
        "longitude": 4.284421,
        "country": "NL",
        "iconUrl": "ghlN.svg",
        "owner": "GHL Netherland",
        "address": "Den Haag Scheveningseweg 54postalCode2517KW",
        "city": [
            "Den Haag"
        ]
    },
    {
        "name": "DHL - Pakketautomaat Ypenburg",
        "latitude": 52.041136,
        "longitude": 4.358454,
        "country": "NL",
        "iconUrl": "ghlN.svg",
        "owner": "GHL Netherland",
        "address": "Den Haag Laan van Waalhaven 10postalCode2497GJ",
        "city": [
            "Den Haag"
        ]
    },
    {
        "name": "Pakketautomaat Lidl Katwijk a. Zee",
        "latitude": 52.209644,
        "longitude": 4.409715,
        "country": "NL",
        "iconUrl": "ghlN.svg",
        "owner": "GHL Netherland",
        "address": "Katwijk aan zee Melkweg 149postalCode2221NP",
        "city": [
            "Katwijk aan zee"
        ]
    },
    {
        "name": "Pakketautomaat Abswoude",
        "latitude": 52.234085,
        "longitude": 4.451821,
        "country": "NL",
        "iconUrl": "ghlN.svg",
        "owner": "GHL Netherland",
        "address": "Noordwijk Nieuwe Offemweg 6postalCode2201AP",
        "city": [
            "Noordwijk"
        ]
    },
    {
        "name": "Pakketautomaat PLUS Voorhout",
        "latitude": 52.221045,
        "longitude": 4.481637,
        "country": "NL",
        "iconUrl": "ghlN.svg",
        "owner": "GHL Netherland",
        "address": "Voorhout Herenstraat 45postalCode2215KD",
        "city": [
            "Voorhout"
        ]
    },
    {
        "name": "DHL - Pakketautomaat RET Hessepl.",
        "latitude": 51.962878,
        "longitude": 4.552504,
        "country": "NL",
        "iconUrl": "ghlN.svg",
        "owner": "GHL Netherland",
        "address": "Rotterdam Spittelerplaats 60postalCode3069EB",
        "city": [
            "Rotterdam"
        ]
    },
    {
        "name": "Pakketautomaat Lidl WC Binnenhof",
        "latitude": 51.959396,
        "longitude": 4.534077,
        "country": "NL",
        "iconUrl": "ghlN.svg",
        "owner": "GHL Netherland",
        "address": "Rotterdam Niels Bohrplaats 25postalCode3068JK",
        "city": [
            "Rotterdam"
        ]
    },
    {
        "name": "DHL - Pakketautomaat Shell Roosev",
        "latitude": 51.955384,
        "longitude": 4.524727,
        "country": "NL",
        "iconUrl": "ghlN.svg",
        "owner": "GHL Netherland",
        "address": "Rotterdam President Rooseveltweg 751postalCode3056JZ",
        "city": [
            "Rotterdam"
        ]
    },
    {
        "name": "DHL - Pakketautomaat  RET Oosterfl",
        "latitude": 51.945717,
        "longitude": 4.554027,
        "country": "NL",
        "iconUrl": "ghlN.svg",
        "owner": "GHL Netherland",
        "address": "Rotterdam Prins Alexanderlaan 110postalCode3066LK",
        "city": [
            "Rotterdam"
        ]
    },
    {
        "name": "Pakketautomaat P-Garage Lusthof",
        "latitude": 51.925692,
        "longitude": 4.509837,
        "country": "NL",
        "iconUrl": "ghlN.svg",
        "owner": "GHL Netherland",
        "address": "Rotterdam Chris Bennekerslaan 25postalCode3061EB",
        "city": [
            "Rotterdam"
        ]
    },
    {
        "name": "Pakketautomaat WC Crimpenhof",
        "latitude": 51.915073,
        "longitude": 4.589527,
        "country": "NL",
        "iconUrl": "ghlN.svg",
        "owner": "GHL Netherland",
        "address": "Krimpen aan den IJssel Raadhuisplein 58postalCode2922AH",
        "city": [
            "Krimpen aan den IJssel"
        ]
    },
    {
        "name": "Pakketautomaat Lidl Bergweg",
        "latitude": 51.940103,
        "longitude": 4.479584,
        "country": "NL",
        "iconUrl": "ghlN.svg",
        "owner": "GHL Netherland",
        "address": "Rotterdam Bergweg 26postalCode3036BA",
        "city": [
            "Rotterdam"
        ]
    },
    {
        "name": "Pakketautomaat Excelsior P1",
        "latitude": 51.917056,
        "longitude": 4.518916,
        "country": "NL",
        "iconUrl": "ghlN.svg",
        "owner": "GHL Netherland",
        "address": "Rotterdam Honingerdijk 110postalCode3062NX",
        "city": [
            "Rotterdam"
        ]
    },
    {
        "name": "Pakketautomaat Lidl Slaak",
        "latitude": 51.924088,
        "longitude": 4.499017,
        "country": "NL",
        "iconUrl": "ghlN.svg",
        "owner": "GHL Netherland",
        "address": "Rotterdam Slaak 36postalCode3061CS",
        "city": [
            "Rotterdam"
        ]
    },
    {
        "name": "Pakketautomaat Lidl Amsteldiep",
        "latitude": 51.90986,
        "longitude": 4.56731,
        "country": "NL",
        "iconUrl": "ghlN.svg",
        "owner": "GHL Netherland",
        "address": "Capelle aan den IJssel Amsteldiep 27postalCode2904EA",
        "city": [
            "Capelle aan den IJssel"
        ]
    },
    {
        "name": "Pakketautomaat Fietsenst Lijnbaan",
        "latitude": 51.923341,
        "longitude": 4.475748,
        "country": "NL",
        "iconUrl": "ghlN.svg",
        "owner": "GHL Netherland",
        "address": "Rotterdam Lijnbaan 30postalCode3012EP",
        "city": [
            "Rotterdam"
        ]
    },
    {
        "name": "DHL - Pakketautomaat RET Beurs",
        "latitude": 51.918106,
        "longitude": 4.481027,
        "country": "NL",
        "iconUrl": "ghlN.svg",
        "owner": "GHL Netherland",
        "address": "Rotterdam Coolsingel 130postalCode3011AG",
        "city": [
            "Rotterdam"
        ]
    },
    {
        "name": "DHL - Pakketautomaat RET Rdam CS",
        "latitude": 51.923951,
        "longitude": 4.469904,
        "country": "NL",
        "iconUrl": "ghlN.svg",
        "owner": "GHL Netherland",
        "address": "Rotterdam Stationsplein 1postalCode3013AJ",
        "city": [
            "Rotterdam"
        ]
    },
    {
        "name": "Pakketautomaat Kruisplein",
        "latitude": 51.920866,
        "longitude": 4.472215,
        "country": "NL",
        "iconUrl": "ghlN.svg",
        "owner": "GHL Netherland",
        "address": "Rotterdam Kruisplein 770postalCode3012CC",
        "city": [
            "Rotterdam"
        ]
    },
    {
        "name": "Pakketautomaat Wilhelminaplein",
        "latitude": 51.907976,
        "longitude": 4.492578,
        "country": "NL",
        "iconUrl": "ghlN.svg",
        "owner": "GHL Netherland",
        "address": "Rotterdam Wilhelminaplein 1postalCode3072DE",
        "city": [
            "Rotterdam"
        ]
    },
    {
        "name": "Pakketautomaat P Erasmusbrug",
        "latitude": 51.91098,
        "longitude": 4.481001,
        "country": "NL",
        "iconUrl": "ghlN.svg",
        "owner": "GHL Netherland",
        "address": "Rotterdam Gedempte Zalmhaven 1postalCode3011BT",
        "city": [
            "Rotterdam"
        ]
    },
    {
        "name": "Pakketautomaat P Museumpark",
        "latitude": 51.913674,
        "longitude": 4.470578,
        "country": "NL",
        "iconUrl": "ghlN.svg",
        "owner": "GHL Netherland",
        "address": "Rotterdam Museumpark 32postalCode3015CX",
        "city": [
            "Rotterdam"
        ]
    },
    {
        "name": "Pakketautomaat P Colosseumweg",
        "latitude": 51.898685,
        "longitude": 4.514184,
        "country": "NL",
        "iconUrl": "ghlN.svg",
        "owner": "GHL Netherland",
        "address": "Rotterdam Vredesplein 13postalCode3074SN",
        "city": [
            "Rotterdam"
        ]
    },
    {
        "name": "Pakketautomaat Westzeedijk",
        "latitude": 51.906367,
        "longitude": 4.461965,
        "country": "NL",
        "iconUrl": "ghlN.svg",
        "owner": "GHL Netherland",
        "address": "Rotterdam Westzeedijk 387postalCode3024EK",
        "city": [
            "Rotterdam"
        ]
    }
]